id,province,district,subdistrict,address,property_type,total_units,bedrooms,baths,floor_area,floor_level,land_area,latitude,longitude,nearby_stations,nearby_bus_stops,nearby_supermarkets,nearby_shops,year_built,month_built,price,price_sqm
8448321,Bangkok,Watthana,Phra Khanong Nuea,"36 Soi Sukhumvit 63, Ekamai Road",Condo,273.0,2.0,2.0,66,10.0,,13.7219444078,100.5848502884,2,,16.0,20,2011,June,8500000,128787.87878787878
10936325,Bangkok,Watthana,Khlong Toei Nuea,31 สุขุมวิท,Condo,74.0,1.0,1.0,49,8.0,,13.741904,100.566949,3,,11.0,20,2012,September,5900000,120408.16326530612
10927931,Bangkok,Khlong Toei,Khlong Tan,"68 Sukhumvit 24 Alley, Khong Tan",Condo,940.0,1.0,1.0,34,4.0,,13.7253952835,100.5656595582,2,,20.0,20,2017,January,6290000,185000.0
11004792,Nonthaburi,Bang Kruai,Bang Khun Kong,Bang Khun Kong,Detached House,,3.0,3.0,170,2.0,248.0,13.8216875,100.4284375,0,,2.0,4,0,,8900000,
10757452,Nonthaburi,Mueang Nonthaburi,Bang Phai,พระราม5-นครอินทร์,Townhouse,,3.0,2.0,120,2.0,72.0,13.8658492,100.4941285,1,,6.0,15,0,,2390000,
10879034,Bangkok,Bang Rak,Si Phraya,เจริญกรุง 30,Condo,211.0,1.0,1.0,54,6.0,,13.726234999999999,100.516179,3,,14.0,20,2014,December,8549000,158314.8148148148
10829681,Nonthaburi,Pak Kret,Pak Kret,"Soi Tiwanon - Pakkret 17, Tiwanon Road",Condo,851.0,2.0,1.0,59,4.0,,13.914101,100.506769,0,20.0,2.0,9,2014,July,1950000,33050.84745762712
10615656,Bangkok,Sai Mai,Sai Mai,สายไหม 15,Townhouse,,2.0,2.0,105,2.0,72.0,13.9023034,100.6432195,0,,6.0,6,0,,1990000,
10611729,Bangkok,Watthana,Khlong Tan Nuea,Sukhumvit Road,Condo,572.0,1.0,1.0,52,12.0,,13.7401356399,100.5851628565,0,20.0,17.0,20,2010,June,7200000,138461.53846153847
10827236,Bangkok,Pathum Wan,Lumphini,55 Langsuan Road,Condo,247.0,1.0,1.0,61,11.0,,13.7395782382,100.543447292,3,,12.0,19,2004,March,3500000,57377.04918032787
10918223,Bangkok,Chatuchak,Lat Yao,2033 Phaholyothin Road,Condo,768.0,2.0,1.0,46,2.0,,13.838551,100.57451,2,20.0,7.0,10,2014,February,4300000,93478.26086956522
10922676,Samut Prakan,Mueang Samut Prakan,Thepharak,Thepharak,Townhouse,,3.0,3.0,108,2.0,132.0,13.6309772,100.6168401,0,,13.0,6,0,,3230000,
10892608,Bangkok,Prawet,Dok Mai,Dok Mai,Townhouse,,4.0,2.0,117,2.0,76.0,13.6759375,100.6940625,0,3.0,1.0,4,0,,3600000,
10720889,Nonthaburi,Bang Bua Thong,Phimon Rat,Phimonrat,Townhouse,,4.0,3.0,110,2.0,128.0,13.9153875,100.3984844,0,,7.0,7,0,,2900000,
10754391,Bangkok,Chatuchak,Chom Phon,. ซอยลาดพร้าว 7 แขวงจอมพล เขตจตุจักร กทม.,Condo,97.0,1.0,1.0,40,6.0,,13.810435,100.567543,3,,12.0,20,2017,June,4390000,109750.0
10561994,Bangkok,Huai Khwang,Huai Khwang,ถนน ประชาอุทิศ,Condo,875.0,2.0,1.0,60,2.0,,13.775817,100.575734,1,,20.0,20,2014,February,3650000,60833.333333333336
7616895,Bangkok,Phra Khanong,Bang Chak,2578 Soi Sukhumvit 66 Sukhumvit Road,Condo,298.0,1.0,1.0,35,24.0,,13.681451,100.609938,1,,11.0,14,2017,January,5400000,154285.7142857143
10906912,Bangkok,Suan Luang,Suan Luang,Ramkhamhaeng Road,Condo,1003.0,1.0,1.0,23,18.0,,13.743283,100.603216,1,,9.0,8,2018,January,1780000,77391.30434782608
10540762,Bangkok,Watthana,Khlong Tan Nuea,32/2 Sukhumvit 39 Road,Condo,135.0,1.0,1.0,44,18.0,,13.740195,100.57825,0,20.0,18.0,20,2015,August,6300000,143181.81818181818
10980009,Bangkok,Bang Rak,Si Phraya,Si Phraya Road,Condo,384.0,1.0,1.0,52,18.0,,13.7312279445,100.5221258679,1,,13.0,20,2023,,5950000,114423.07692307692
9855083,Bangkok,Huai Khwang,Huai Khwang,ถนน ประชาอุทิศ,Condo,875.0,2.0,1.0,60,5.0,,13.775817,100.575734,1,,20.0,20,2014,February,3890000,64833.333333333336
9840544,Bangkok,Bangkok Yai,Wat Tha Phra,901 Soi Charan Sanitwong 3 Charan Sanitwong Road Yai,Condo,1932.0,1.0,1.0,28,8.0,,13.732507,100.467091,3,,3.0,1,2016,June,1590000,56785.71428571428
10724511,Nonthaburi,Pak Kret,Pak Kret,Chaengwattana Road,Condo,427.0,1.0,1.0,34,6.0,,13.9066980718,100.5249365681,0,10.0,7.0,10,2016,February,2100000,61764.705882352944
11010958,Bangkok,Bueng Kum,Nuan Chan,"900 Soi Prasert Manutak 33, Kaset - Nawamin Road",Condo,1019.0,1.0,1.0,39,5.0,,13.8252937333,100.6306763459,0,20.0,8.0,20,2010,April,2700000,69230.76923076923
10818702,Bangkok,Bueng Kum,Khlong Kum,. ถนนเสรีไทย แขวงคลองกุ่ม เขตบึงกุ่ม กรุงเทพมหานคร,Condo,505.0,1.0,1.0,26,6.0,,13.776403,100.661409,0,20.0,7.0,10,2019,September,1860000,71538.46153846153
10848712,Bangkok,Watthana,Khlong Tan Nuea,175-179 Soi Sukhumvit 39 Sukhumvit Road,Condo,500.0,2.0,1.0,119,18.0,,13.743154,100.573438,0,20.0,12.0,13,1994,April,7200000,60504.20168067227
10986761,Bangkok,Bang Kapi,Khlong Chan,5 Lat Phrao Rd,Condo,751.0,2.0,2.0,55,2.0,,13.7706364,100.6301829,0,19.0,15.0,6,2010,January,2790000,50727.27272727273
10975031,Nonthaburi,Bang Kruai,Bang Khun Kong,999/71 นครอืนทร์,Detached House,,3.0,3.0,179,2.0,336.0,13.8213363,100.4424658,0,5.0,7.0,8,0,,8580000,
10114191,Bangkok,Watthana,Khlong Tan Nuea,Sukhumvit 61 Road,Condo,168.0,1.0,1.0,43,18.0,,13.722653,100.583041,2,,19.0,20,2013,February,6200000,144186.0465116279
10716249,Bangkok,Sai Mai,Sai Mai,Saimai Road,Townhouse,250.0,3.0,2.0,72,2.0,76.0,13.921263,100.663648,0,14.0,8.0,4,2017,,2500000,
10620204,Bangkok,Khlong Toei,Phra Khanong,Soi Sukhumvit 48,Condo,612.0,2.0,1.0,47,16.0,,13.711724,100.594785,2,,20.0,17,2018,December,5700000,121276.59574468085
11028835,Nonthaburi,Mueang Nonthaburi,Bang Khen,Bang Khen,Detached House,,3.0,3.0,160,2.0,240.0,13.8659345374,100.494220187,1,,6.0,15,0,,7890000,
10891387,Bangkok,Nong Khaem,Nong Khaem,Nong Kham,Detached House,,2.0,2.0,120,2.0,72.0,13.6958125,100.3408125,0,17.0,11.0,4,0,,3708000,
10675303,Samut Prakan,Mueang Samut Prakan,Samrong Nuea,72 Soi Sukhumvit Sukhumvit Road,Condo,987.0,1.0,1.0,32,18.0,,13.6593142974,100.5975552692,1,,7.0,20,2017,January,2100000,65625.0
10901106,Samut Prakan,Bang Phli,Bang Pla,43/3 Thepharak Road,Townhouse,279.0,3.0,2.0,230,2.0,336.0,13.576934,100.724976,0,,7.0,1,0,,4590000,
10880059,Bangkok,Khan Na Yao,Ram Inthra,"Soi Ramindhra 78, Nawamin Road - Ramintra Road",Condo,2568.0,1.0,1.0,22,14.0,,13.8366642188,100.6621166098,0,20.0,19.0,13,2012,December,990000,45000.0
10869807,Nonthaburi,Mueang Nonthaburi,Bang Khen,Nakhon In,Condo,1544.0,1.0,1.0,35,18.0,,13.83663,100.504437,0,20.0,5.0,3,2015,April,1490000,42571.42857142857
10753754,Samut Prakan,Phra Samut Jadee,Nai Khlong Bang Pla Kot,ประชาอุทิศ-วัดคู่สร้าง,Townhouse,,3.0,3.0,139,2.0,92.0,13.5875125,100.5223594,0,15.0,9.0,3,0,,2200000,
10818097,Nonthaburi,Bang Bua Thong,Bang Rak Phatthana,Janthongeam Road,Condo,1870.0,1.0,1.0,23,5.0,,13.88957,100.405623,1,,9.0,13,2015,December,1100999,47869.52173913043
10147102,Samut Prakan,Bang Phli,Bang Kaeo,90/239 Burapha Withi Expressway,Townhouse,238.0,3.0,4.0,190,2.0,88.0,13.6625843453,100.6543250531,0,12.0,4.0,6,2013,,8800000,
10525811,Nonthaburi,Bang Yai,Bang Len,1 บางกรวย-ไทรน้อย,Detached House,,6.0,5.0,222,2.0,216.0,13.8621125,100.5143528,1,,6.0,12,0,,8700000,
10988559,Bangkok,Watthana,Khlong Tan Nuea,Sukhumvit 55,Condo,1098.0,1.0,1.0,33,18.0,,13.7316075514,100.584646842,0,20.0,18.0,20,2022,October,9070000,274848.48484848486
10094960,Bangkok,Pathum Wan,Lumphini,5/2 Ploenchit Road,Condo,138.0,1.0,1.0,33,18.0,,13.735834,100.550698,2,,9.0,20,2016,January,5500000,166666.66666666666
10997562,Samut Prakan,Mueang Samut Prakan,Samrong Nuea,Sukhumvit Road,Condo,1770.0,1.0,1.0,28,15.0,,13.646183,100.595117,1,20.0,16.0,20,2017,March,2800000,100000.0
10380817,Samut Prakan,Mueang Samut Prakan,Pak Nam,Sukhumvit,Condo,1576.0,2.0,1.0,48,21.0,,13.6209747963,100.5900846911,1,19.0,8.0,4,2015,June,3500000,72916.66666666667
10762041,Bangkok,Huai Khwang,Huai Khwang,"195 Rama 9 Road, Soi 5",Condo,1911.0,2.0,2.0,58,18.0,,13.7561782114,100.568285373,3,,14.0,20,2022,April,9478095,163415.43103448275
10887666,Samut Prakan,Mueang Samut Prakan,Samrong Nuea,"Soi Sridan 18, Srinakarin Road",Townhouse,93.0,4.0,3.0,99,2.0,100.0,13.643353,100.637945,0,11.0,9.0,11,2014,,6950000,
10924469,Bangkok,Chatuchak,Lat Yao,(พหลโยธิน-วิภาวดี) แขวงลาดยาว เขตจตุจักร กทม,Condo,448.0,1.0,1.0,31,2.0,,13.857099,100.576844,2,,6.0,3,2018,June,2950000,95161.29032258065
10795155,Nonthaburi,Bang Yai,Sao Thong Hin,Rattanathibet Road,Condo,1013.0,1.0,1.0,24,24.0,,13.875603,100.413584,2,,20.0,20,2018,May,2500000,104166.66666666667
8730546,Bangkok,Phaya Thai,Sam Sen Nai,1377 Phaholyothin Road,Condo,809.0,1.0,1.0,45,39.0,,13.788908,100.545272,2,,14.0,20,2012,September,5400000,120000.0
10824290,Bangkok,Chatuchak,Sena Nikhom,Phaholyothin Road,Condo,229.0,1.0,1.0,25,2.0,,13.8457228689,100.5805871661,2,20.0,7.0,4,2017,,2300000,92000.0
11004680,Samut Prakan,Bang Sao Thong,Sisa Chorakhe Noi,Ladkrabang Road,Townhouse,449.0,3.0,2.0,70,2.0,68.0,13.695525,100.785754,0,,2.0,2,0,,1890000,
9593755,Bangkok,Phaya Thai,Sam Sen Nai,21 Pradiphat Road,Condo,981.0,2.0,1.0,52,18.0,,13.7908705133,100.5460723178,3,,14.0,20,2019,October,8700000,167307.6923076923
10737573,Bangkok,Saphan Sung,Saphan Sung,ถนน กาญจนาภิเษก ถนน ศรีนครินทร์ - ร่มเกล้า,Townhouse,,3.0,4.0,88,2.0,92.0,13.8654263,100.6773403,0,,4.0,3,0,,3800000,
10854825,Bangkok,Sai Mai,O Ngoen,คลองถนน,Townhouse,,3.0,2.0,95,2.0,72.0,13.9023034,100.6432195,0,,6.0,6,0,,3200000,
10988933,Nonthaburi,Bang Kruai,Maha Sawat,สวนผัก 32,Townhouse,,3.0,2.0,130,2.0,84.0,13.8089875,100.4245469,0,,8.0,2,0,,4000000,
7532081,Nonthaburi,Pak Kret,Khlong Kluea,Chaeng Watthana Road,Condo,1231.0,1.0,1.0,26,18.0,,13.897264621,100.5523397718,0,15.0,6.0,8,2013,January,1800000,69230.76923076923
10715206,Bangkok,Din Daeng,Din Daeng,624 Asoke-Dindaeng Road,Condo,543.0,1.0,1.0,34,3.0,,13.7567573,100.559701,3,,8.0,19,2019,October,4150000,122058.82352941176
11008107,Bangkok,Don Mueang,Si Kan,Si Khan,Townhouse,,2.0,2.0,80,2.0,80.0,13.9366625,100.5796406,0,7.0,4.0,1,0,,1850000,
10798751,Bangkok,Nong Khaem,Nong Khang Phlu,Soi Moobaan Taweethong,Townhouse,172.0,3.0,2.0,120,2.0,76.0,13.7188288569,100.3451128289,0,,4.0,3,2009,,1890000,
10939185,Bangkok,Don Mueang,Si Kan,115/98 นาวงประชาพัฒนา 21,Detached House,,3.0,3.0,185,2.0,260.0,13.9508125,100.5687969,0,,6.0,1,0,,6490000,
10981364,Bangkok,Ratchathewi,Makkasan,1088 Phetchaburi Road,Condo,352.0,1.0,1.0,47,32.0,,13.749185,100.543761,3,,17.0,20,2015,March,7290000,155106.3829787234
11028683,Bangkok,Suan Luang,Suan Luang,Srinakarin Road,Condo,1152.0,1.0,1.0,32,5.0,,13.744081,100.644114,1,,5.0,3,2009,March,1390000,43437.5
10627343,Nonthaburi,Pak Kret,Khlong Kluea,Chaeng Watthana Road,Condo,1231.0,1.0,1.0,34,17.0,,13.897264621,100.5523397718,0,15.0,6.0,8,2013,January,2290000,67352.94117647059
11047700,Nonthaburi,Bang Bua Thong,Bang Khu Rat,Soi Moobaan Phrueksa 3,Detached House,46.0,5.0,2.0,100,2.0,36.0,13.9094859889,100.3531281674,0,,4.0,2,0,,2890000,
11008562,Bangkok,Watthana,Phra Khanong Nuea,"36 Soi Sukhumvit 63, Ekamai Road",Condo,273.0,1.0,1.0,47,18.0,,13.7219444078,100.5848502884,2,,16.0,20,2011,June,5600000,119148.93617021276
10848813,Bangkok,Chatuchak,Lat Yao,(พหลโยธิน-วิภาวดี) แขวงลาดยาว เขตจตุจักร กทม,Condo,448.0,1.0,1.0,25,12.0,,13.857099,100.576844,2,,6.0,3,2018,June,2880000,115200.0
11023206,Bangkok,Watthana,Phra Khanong Nuea,2077 Sukhumvit Road,Condo,490.0,1.0,1.0,44,21.0,,13.706225334700001,100.6012631105,1,,7.0,13,2011,April,6000000,136363.63636363635
10997542,Bangkok,Phra Khanong,Bang Chak,Soi Sukhumvit 97,Condo,218.0,1.0,1.0,35,4.0,,13.698067426,100.6068849509,2,,6.0,9,2011,September,2060000,58857.142857142855
11031554,Bangkok,Thon Buri,Bukkhalo,99 Ratchaphruek Road,Condo,268.0,2.0,2.0,77,8.0,,13.717645,100.483624,3,,9.0,20,2011,July,6450000,83766.23376623377
9532011,Nonthaburi,Mueang Nonthaburi,Talat Khwan,ถนน ติวานนท์ 3,Condo,238.0,1.0,1.0,28,3.0,,13.8488323892,100.5126280428,1,,6.0,9,2014,August,1550000,55357.142857142855
10477860,Bangkok,Huai Khwang,Noble Revolve Ratchada,38 Ratchadapisek Road,Condo,802.0,1.0,1.0,26,10.0,,13.763912,100.569344,2,,16.0,20,2017,June,3990000,153461.53846153847
10883610,Bangkok,Bang Phlat,Bang Yi Khan,"Soi Charansanitwong, Sirinthon Road",Condo,560.0,1.0,1.0,25,18.0,,13.7838800572,100.4939085012,1,,13.0,11,2018,March,2490000,99600.0
8682535,Bangkok,Khlong Toei,Phra Khanong,Sukhumvit Road,Condo,837.0,2.0,2.0,54,4.0,,13.7109650149,100.5938943245,2,,17.0,18,2013,December,5200000,96296.29629629629
11028656,Bangkok,Watthana,Khlong Tan Nuea,"18 Soi Sukhumvit 59, Sukhumvit Road",Condo,228.0,1.0,1.0,36,18.0,,13.7243773238,100.5816983386,2,,16.0,20,2009,March,3700000,102777.77777777778
10659807,Bangkok,Min Buri,Saen Saep,สุวินทวงศ์,Detached House,,3.0,3.0,220,2.0,296.0,13.8158125,100.7508125,0,11.0,,3,0,,6200000,
10829062,Nonthaburi,Mueang Nonthaburi,Bang Kraso,678 Rattanathibet Road,Condo,540.0,1.0,1.0,31,7.0,,13.8693817443,100.4897048148,1,,9.0,13,2015,September,1500000,48387.096774193546
10906044,Nonthaburi,Mueang Nonthaburi,Bang Kraso,Rattanathibet Road,Condo,2824.0,1.0,1.0,26,18.0,,13.8636530348,100.5028675423,2,,16.0,11,2016,December,1500000,57692.307692307695
11002007,Bangkok,Lak Si,Thung Song Hong,Thung Song Hong,Townhouse,,3.0,3.0,160,2.0,,13.8873958,100.5689948,0,18.0,3.0,6,0,,3990000,
10385575,Bangkok,Khlong Sam Wa,Bang Chan,รามอินทรา สุเหร่าคลองหนึ่ง,Townhouse,,3.0,2.0,96,2.0,72.0,13.8402137,100.7323332,0,,2.0,3,0,,2490000,
11033066,Nonthaburi,Bang Kruai,Plai Bang,Kanchanapisek Road (Soi Wat Som Kliang-Wat Phraek),Townhouse,450.0,3.0,2.0,110,2.0,88.0,13.813569,100.403827,0,2.0,4.0,5,0,,2490000,
10989171,Bangkok,Khlong Toei,Khlong Tan,"68 Sukhumvit 24 Alley, Khong Tan",Condo,940.0,1.0,1.0,28,8.0,,13.7253952835,100.5656595582,2,,20.0,20,2017,January,6400000,228571.42857142858
10625896,Nonthaburi,Bang Bua Thong,Bang Bua Thong,Bang Bua Thong,Townhouse,,2.0,2.0,110,2.0,64.0,13.9811875,100.3933125,0,,4.0,3,0,,2150000,
11037422,Nonthaburi,Mueang Nonthaburi,Bang Kraso,185 Rattanathibet Road,Condo,1428.0,1.0,1.0,31,15.0,,13.860527,100.508473,2,,9.0,8,2016,June,1950000,62903.22580645161
11033583,Bangkok,Yan Nawa,Chong Nonsi,Chong Nonsi,Detached House,,3.0,3.0,109,3.0,,13.6904375,100.5422344,1,20.0,12.0,20,0,,8100000,
10976441,Bangkok,Khlong Toei,Phra Khanong,Sukhumvit Road,Condo,486.0,2.0,1.0,51,21.0,,13.715134387500001,100.5908126786,2,,19.0,20,2013,January,7500000,147058.82352941178
10889989,Nonthaburi,Bang Bua Thong,Vio Khaerai 2,41/44 R,Condo,122.0,1.0,1.0,37,4.0,,13.8567071172,100.5122486589,2,,11.0,13,2016,April,2850000,77027.02702702703
10554595,Nonthaburi,Pak Kret,Bang Phlap,Ratchaphruek Road,Detached House,300.0,4.0,3.0,180,2.0,228.0,13.9118293971,100.4501047086,0,2.0,6.0,6,2010,,5500000,
10936239,Nonthaburi,Sai Noi,Sai Noi,Bang Kruai-Sai Noi Road,Townhouse,60.0,3.0,2.0,118,2.0,120.0,13.980093353200001,100.3252170306,0,8.0,3.0,3,2021,,2350000,
8757349,Nonthaburi,Bang Yai,Sao Thong Hin,ถนนรัตนาธิเบศร์,Condo,1208.0,1.0,1.0,26,6.0,,13.8767385855,100.4136741449,2,,20.0,20,2018,October,1800000,69230.76923076923
10884527,Samut Prakan,Bang Phli,Racha Thewa,Lat Krabang Road,Detached House,1337.0,3.0,3.0,153,2.0,232.0,13.714717,100.7251718,0,7.0,12.0,10,2018,December,6940000,
10872664,Bangkok,Khlong Toei,Phra Khanong,Sukhumvit Road,Condo,837.0,1.0,1.0,28,8.0,,13.7109650149,100.5938943245,2,,17.0,18,2013,December,2000000,71428.57142857143
11028495,Bangkok,Phaya Thai,Sam Sen Nai,308/1 ถนนพหลโยธิน แขวงสามเสนใน เขตพญาไท กทม.,Condo,611.0,2.0,1.0,45,25.0,,13.778127,100.544313,3,,9.0,14,2022,August,9900000,220000.0
10917428,Bangkok,Ratchathewi,Thanon Phaya Thai,Phayathai Road,Condo,690.0,2.0,2.0,60,29.0,,13.754455,100.534634,3,,20.0,20,2013,July,5360000,89333.33333333333
10714759,Nonthaburi,Mueang Nonthaburi,Bang Kraso,Rattanathibet Road,Condo,697.0,1.0,1.0,31,7.0,,13.860403,100.508239,2,,9.0,8,2014,January,1290000,41612.903225806454
10912708,Bangkok,Bang Kapi,Hua Mak,Ramkhamhaeng Road,Condo,1114.0,1.0,1.0,29,8.0,,13.7508865786,100.6065421383,0,20.0,7.0,16,2012,,1700000,58620.68965517241
11028189,Samut Prakan,Mueang Samut Prakan,Samrong Nuea,Sukhumvit Road 113,Condo,404.0,1.0,1.0,28,6.0,,13.6349884735,100.6220159074,0,8.0,8.0,3,2013,January,1290000,46071.42857142857
10997376,Bangkok,Bang Na,Bang Na,Soi Sanphawut 2 Road,Condo,1745.0,1.0,1.0,31,8.0,,13.6757298092,100.604101129,2,,7.0,5,2017,January,1060000,34193.54838709677
10989309,Nonthaburi,Sai Noi,Sai Noi,Sai Noi,Townhouse,,3.0,2.0,100,2.0,64.0,13.9874375,100.3221719,0,4.0,4.0,2,0,,1690000,
11032145,Bangkok,Bang Rak,ASHTON Silom,166 Silom Road,Condo,428.0,1.0,1.0,31,14.0,,13.726304,100.526875,3,,20.0,20,2016,May,7000000,225806.4516129032
10612114,Bangkok,Khlong Toei,Phra Khanong,"55 Soi Sukhumvit 36, Sukhumvit Road",Condo,496.0,1.0,1.0,33,6.0,,13.721547,100.576713,2,,15.0,20,2016,December,6400000,193939.39393939395
11011222,Bangkok,Bueng Kum,Khlong Kum,Khlong Kum,Townhouse,,2.0,2.0,100,2.0,72.0,13.8075625,100.6850469,0,20.0,6.0,6,0,,2600000,
11033060,Bangkok,Chatuchak,Chatuchak,6-1 Phong Phet Niwet Alley,Condo,1031.0,1.0,1.0,31,2.0,,13.8250776343,100.5455523087,1,20.0,2.0,6,2009,June,1190000,38387.096774193546
8219998,Bangkok,Bang Khen,Tha Raeng,43 Raminthra Road,Condo,825.0,1.0,1.0,30,4.0,,13.8534916212,100.6360918168,0,16.0,10.0,9,2012,January,1390000,46333.333333333336
8490549,Samut Prakan,Phra Pradaeng,Samrong,Soi Tesabansamrongtai 6,Townhouse,282.0,4.0,3.0,117,2.0,,13.656373,100.589627,0,,6.0,12,2020,,6900000,
10965853,Bangkok,Lat Phrao,Lat Phrao,Ladprao - Wang Hin Road,Condo,317.0,2.0,2.0,50,7.0,,13.826267,100.592026,0,7.0,10.0,9,2017,May,4400000,88000.0
11010714,Bangkok,Huai Khwang,Huai Khwang,"Soi Ratchadaphisek 10, Ratchadaphisek Road",Condo,1414.0,1.0,1.0,30,5.0,,13.771112,100.576049,2,,20.0,20,2013,June,1900000,63333.333333333336
10497485,Samut Prakan,Bang Phli,Nong Prue,Wat Sri Waree Noi Road,Detached House,242.0,3.0,2.0,120,2.0,152.0,13.646816,100.77324,0,,2.0,1,0,,3100000,
10541003,Nonthaburi,Mueang Nonthaburi,Bang Khen,ประชาชื่น ประชาชื่น,Condo,306.0,1.0,1.0,37,2.0,,13.865726,100.546915,0,12.0,6.0,6,2012,June,2050000,55405.40540540541
10611830,Bangkok,Khlong Toei,Khlong Tan,"68 Sukhumvit 24 Alley, Khong Tan",Condo,940.0,1.0,1.0,33,26.0,,13.7253952835,100.5656595582,2,,20.0,20,2017,January,6390000,193636.36363636365
8453528,Bangkok,Huai Khwang,Bang Kapi,2898 Petchaburi Road,Condo,281.0,1.0,1.0,35,22.0,,13.744085,100.587193,0,20.0,11.0,13,2015,February,3950000,112857.14285714286
10629166,Nonthaburi,Mueang Nonthaburi,Bang Kraso,26/1  Rattanathibet Road,Condo,1232.0,2.0,1.0,52,22.0,,13.8637736562,100.5010689973,2,,14.0,15,2011,June,2000000,38461.53846153846
10794789,Nonthaburi,Pak Kret,Pak Kret,. ซอยแจ้งวัฒนะ-ปากเกร็ด 9/1 ปากเกร็ด นนทบุรี,Condo,79.0,1.0,1.0,35,4.0,,13.910562,100.502337,0,20.0,8.0,10,2013,June,2600000,74285.71428571429
11015195,Bangkok,Phra Khanong,Bang Chak,Soi Sukhumvit 81 Sukhumvit Road,Condo,146.0,2.0,2.0,53,7.0,,13.705547,100.603711,2,,8.0,14,2009,,3900000,73584.90566037736
10536018,Nonthaburi,Bang Kruai,Plai Bang,ถนนโยธาธิการ,Townhouse,,3.0,2.0,95,2.0,104.0,13.8176375,100.7149219,0,20.0,9.0,9,0,,2500000,
10927996,Bangkok,Suan Luang,Suan Luang,"Soi Phatthanakan 26, Phatthanakan Road",Condo,1482.0,1.0,1.0,26,3.0,,13.736117212,100.6169253619,0,20.0,9.0,5,2012,June,1500000,57692.307692307695
10918297,Bangkok,Bang Sue,Bang Sue,. ถนนประชาราษฎร์ สาย 1 แขวงบางซื่อ เขตบางซื่อ กทม.,Condo,615.0,1.0,1.0,22,11.0,,13.812272,100.520709,1,,6.0,4,2019,June,2000000,90909.09090909091
10946373,Bangkok,Khlong Sam Wa,Bang Chan,Bang Chun,Detached House,,3.0,2.0,120,2.0,124.0,13.8423125,100.7133125,0,3.0,4.0,4,0,,2900000,
10999275,Samut Prakan,Mueang Samut Prakan,Samrong Nuea,Sukhumvit 107 Road,Condo,1113.0,2.0,1.0,40,3.0,,13.65832,100.606151,1,,8.0,7,2019,August,1990000,49750.0
10846249,Bangkok,Khlong Toei,Phra Khanong,19 Soi Sukhumvit 36 Thonglor Road,Condo,130.0,1.0,1.0,35,6.0,,13.72307,100.577204,2,,18.0,20,2017,January,6600000,188571.42857142858
11030925,Bangkok,Khlong Toei,Phra Khanong,Soi Sukhumvit 48,Condo,612.0,1.0,1.0,40,9.0,,13.711724,100.594785,2,,20.0,17,2018,December,5900000,147500.0
8734102,Bangkok,Khan Na Yao,Khan Na Yao,Kanchanaphisek Road,Detached House,296.0,3.0,3.0,180,2.0,260.0,13.834605,100.676027,0,13.0,7.0,11,0,,7400000,
10919479,Bangkok,Khlong Toei,Phra Khanong,Soi Sukhumvit 48,Condo,612.0,1.0,1.0,41,18.0,,13.711724,100.594785,2,,20.0,17,2018,December,4700000,114634.14634146342
10125350,Bangkok,Khlong San,Khlong Ton Sai,543 Taksin Road,Condo,593.0,1.0,1.0,38,31.0,,13.7213126924,100.50685259790001,3,,12.0,20,2013,June,3790000,99736.84210526316
10973543,Bangkok,Bangkok Noi,Bang Khun Si,ถนนพระเทพฯ พรานนก-พุทธมลฑลสาย 4 แขวงบางขุนศรี บางกอกน้อย กทม. Noi,Condo,366.0,1.0,1.0,35,18.0,,13.754026,100.466757,1,,10.0,9,2019,September,2690000,76857.14285714286
10477695,Samut Prakan,Bang Phli,Racha Thewa,Lat Krabang Road,Detached House,1337.0,3.0,5.0,220,2.0,244.0,13.714717,100.7251718,0,7.0,12.0,10,2018,December,9800000,
10981542,Nonthaburi,Bang Bua Thong,Bang Bua Thong,Bang Bua Thong,Townhouse,,3.0,2.0,64,2.0,64.0,13.9025625,100.3680625,0,,3.0,2,0,,1490000,
10606693,Bangkok,Din Daeng,Din Daeng,Dindaeng Road,Condo,500.0,2.0,1.0,75,10.0,,13.756137,100.560813,3,,8.0,20,2012,March,6200000,82666.66666666667
10977196,Nonthaburi,Mueang Nonthaburi,Bang Kraso,ซอยนนทบุรี 15 Sanam Bin Nam Road,Condo,2351.0,2.0,2.0,50,46.0,,13.87393,100.478563,1,,4.0,2,2019,June,5500000,110000.0
10918106,Bangkok,Phra Khanong,Bang Chak,2097 Sukhumvit Road,Condo,940.0,1.0,1.0,30,20.0,,13.7044772772,100.6024978271,2,,6.0,11,2013,December,3590000,119666.66666666667
10876457,Bangkok,Phaya Thai,Sam Sen Nai,Pradipat,Condo,450.0,1.0,1.0,38,22.0,,13.791898,100.539143,0,20.0,3.0,6,2017,November,3070000,80789.47368421052
10938220,Samut Prakan,Mueang Samut Prakan,Samrong Nuea,ซอยสุขุมวิท 113 ถนนสุขุมวิท ตำบลสำโรงเหนือ อำเภอเมือง สมุทรปราการ,Condo,336.0,1.0,1.0,28,4.0,,13.647505,100.600838,1,20.0,15.0,20,2018,October,1590000,56785.71428571428
10803849,Bangkok,Phasi Charoen,Bang Wa,Kanlapaphruek Road,Condo,1250.0,1.0,1.0,41,6.0,,13.710545,100.449838,1,,4.0,9,2007,,1400000,34146.34146341463
10731556,Samut Prakan,Bang Phli,Racha Thewa,กิ่งแก้ว,Townhouse,,3.0,2.0,113,2.0,72.0,13.6996875,100.7155625,0,,,2,0,,1900000,
10629403,Nonthaburi,Bang Yai,Bang Mae Nang,ถนนทางหลวงชนบท นนทบุรี3086    ถนนเลียบคลองบางไทร,Townhouse,,3.0,2.0,105,2.0,64.0,13.8448335,100.3610179,0,,6.0,3,0,,1980000,
10900098,Bangkok,Chom Thong,Bang Kho,"Soi Wing Wua, Ratchapruk Road",Condo,979.0,1.0,1.0,31,8.0,,13.715173,100.467439,2,,4.0,2,2016,October,2050000,66129.03225806452
10797741,Bangkok,Khlong Sam Wa,Sam Wa Tawan Tok,พระยาสุเรนทร์,Townhouse,,3.0,2.0,120,2.0,72.0,13.8402137,100.7323332,0,,2.0,3,0,,1950000,
11014083,Bangkok,Chom Thong,Bang Mot,Bangmot,Townhouse,,2.0,2.0,100,2.0,68.0,13.6511377,100.4790006,0,9.0,5.0,5,0,,2490000,
11033419,Bangkok,Min Buri,Min Buri,Min Buri,Detached House,,4.0,3.0,180,2.0,332.0,13.8154818,100.7352666,0,20.0,6.0,10,0,,8500000,
9950784,Bangkok,Khan Na Yao,Khan Na Yao,Khan Na Yao,Townhouse,,3.0,3.0,136,2.0,84.0,13.8513125,100.6721875,0,8.0,3.0,4,0,,3190000,
10654699,Bangkok,Khlong Toei,Khlong Tan,"68 Sukhumvit 24 Alley, Khong Tan",Condo,940.0,1.0,1.0,33,15.0,,13.7253952835,100.5656595582,2,,20.0,20,2017,January,5900000,178787.87878787878
10972902,Bangkok,Bueng Kum,Khlong Kum,Khlong Kum,Townhouse,,4.0,3.0,86,2.0,88.0,13.7919717,100.659077,0,8.0,8.0,2,0,,4200000,
11019822,Bangkok,Khlong Toei,Phra Khanong,Soi Sukhumvit 40 Sukhumvit Road,Condo,132.0,1.0,1.0,50,7.0,,13.721765,100.580699,2,,14.0,20,2015,February,4500000,90000.0
10976865,Nonthaburi,Mueang Nonthaburi,Sai Ma,Soi Sai Ma 8,Detached House,52.0,3.0,3.0,175,2.0,224.0,13.856773,100.474932,0,,,1,2020,December,7000000,
10980805,Nonthaburi,Bang Bua Thong,Bang Rak Yai,Soi Yothathikan 2023,Detached House,224.0,3.0,3.0,160,2.0,112.0,13.909844,100.442912,0,,3.0,5,2017,,3290000,
10798501,Bangkok,Phra Khanong,Bang Chak,Soi Sukhumvit 97/1,Condo,1245.0,1.0,1.0,29,5.0,,13.699175,100.614429,0,,7.0,6,2019,,1550000,53448.275862068964
10892613,Bangkok,Khlong Toei,Khlong Tan,"Soi Sukhumvit 26, Sukhumvit Road, Khong Tan",Condo,329.0,2.0,2.0,93,14.0,,13.725139845,100.5688159325,2,,20.0,20,2009,February,8500000,91397.84946236559
10531708,Bangkok,Don Mueang,Si Kan,Si Khan,Detached House,,2.0,2.0,80,2.0,80.0,13.9441332,100.5802503,0,,2.0,1,0,,1700000,
10836912,Bangkok,Bang Kapi,Hua Mak,Hua Mak,Townhouse,,4.0,3.0,140,2.0,112.0,13.7626581,100.6759772,0,,1.0,1,0,,3750000,
11032036,Bangkok,Lat Phrao,Lat Phrao,Soi Lat Phrao Wang Hin 43,Condo,376.0,1.0,1.0,23,6.0,,13.809578,100.5911,0,,11.0,7,2016,,1950000,84782.60869565218
10933887,Bangkok,Chatuchak,Chan Kasem,Soi Ladprao 33 Yak 1,Condo,79.0,1.0,1.0,29,2.0,,13.806445,100.580493,1,,6.0,3,2019,May,2250000,77586.20689655172
11008968,Nonthaburi,Bang Yai,Bang Muang,วัดพระเงิน,Detached House,,3.0,2.0,175,2.0,208.0,13.8290625,100.3961719,0,,4.0,5,0,,4650000,
7531973,Nonthaburi,Bang Yai,Sao Thong Hin,ถนนรัตนาธิเบศร์,Condo,1208.0,1.0,1.0,26,18.0,,13.8767385855,100.4136741449,2,,20.0,20,2018,October,2200000,84615.38461538461
10381969,Bangkok,Lat Krabang,Lat Krabang,Lat Krabang Road,Condo,470.0,2.0,2.0,47,4.0,,13.72198,100.726383,0,16.0,10.0,12,2019,,3990000,84893.6170212766
10664600,Nonthaburi,Mueang Nonthaburi,Bang Kraso,Rattanathibet Road,Condo,2824.0,1.0,1.0,23,9.0,,13.8636530348,100.5028675423,2,,16.0,11,2016,December,1240000,53913.04347826087
10848062,Nonthaburi,Bang Bua Thong,Bang Bua Thong,Kanchanaphisek Road,Condo,443.0,1.0,1.0,29,6.0,,13.8837119077,100.4095719583,2,,20.0,20,2017,June,1250000,43103.44827586207
10336305,Bangkok,Prawet,Dok Mai,50/363 Chaloem Phrakiat Ro 9 Soi 28 Yaek 14,Condo,576.0,2.0,1.0,58,4.0,,13.671014,100.673514,0,,5.0,6,1993,,1400000,24137.931034482757
10808210,Bangkok,Suan Luang,Suan Luang,Srinakarin Road,Condo,1152.0,2.0,2.0,65,8.0,,13.744081,100.644114,1,,5.0,3,2009,March,3300000,50769.230769230766
10972012,Samut Prakan,Mueang Samut Prakan,Thepharak,Thepharak,Townhouse,,3.0,3.0,154,2.0,156.0,13.6309772,100.6168401,0,,13.0,6,0,,3800000,
10950238,Nonthaburi,Pak Kret,Bang Tanai,Bang Tanai,Detached House,,3.0,3.0,163,2.0,256.0,13.9190649,100.4916234,0,7.0,7.0,2,0,,5290000,
10566106,Bangkok,Bang Khen,Anusawari,9/374 Lat Pla Khao Road,Condo,1035.0,1.0,1.0,22,4.0,,13.862805,100.613343,0,20.0,7.0,7,2014,December,1300000,59090.90909090909
11032518,Bangkok,Wang Thonglang,Wang Thonglang,รามคำแหง,Condo,229.0,1.0,1.0,27,7.0,,13.764295,100.615457,0,20.0,20.0,17,2014,February,1490000,55185.18518518518
10879546,Bangkok,Don Mueang,Sanam Bin,วิภาวดีรังสิต,Townhouse,,2.0,2.0,100,2.0,72.0,13.9410625,100.6129375,0,16.0,5.0,4,0,,1785000,
10683613,Bangkok,Khlong Sam Wa,Sam Wa Tawan Tok,หทัยราษฎร์39,Townhouse,,2.0,2.0,64,2.0,64.0,13.8402137,100.7323332,0,,2.0,3,0,,1750000,
8457180,Nonthaburi,Bang Bua Thong,Bang Rak Phatthana,ถนนวัดลาดปลาดุก,Detached House,,3.0,2.0,128,2.0,248.0,13.910811065,100.3920518881,0,,7.0,7,0,,4590000,
10807845,Bangkok,Khan Na Yao,Khan Na Yao,ถนน รามอินทรา,Condo,215.0,1.0,1.0,33,2.0,,13.827808,100.675296,0,15.0,10.0,20,2014,March,2400000,72727.27272727272
10734270,Bangkok,Sai Mai,O Ngoen,Soi Watcharaphon,Detached House,369.0,4.0,3.0,244,2.0,248.0,13.9077810133,100.6648857057,0,7.0,4.0,3,0,,5990000,
10730580,Bangkok,Khlong Sam Wa,Bang Chan,Hathairat Road,Detached House,196.0,3.0,3.0,168,2.0,168.0,13.8548819176,100.7220350313,0,10.0,5.0,6,0,,4600000,
11026649,Bangkok,Chom Thong,Bang Kho,65 ถนนกัลปพฤกษ์ แขวงบางค้อ เขตจอมทอง กรุงเทพมหานคร,Condo,613.0,1.0,1.0,26,19.0,,13.712653,100.464333,1,,2.0,1,2016,June,1700000,65384.61538461538
10145733,Bangkok,Bang Rak,Suriyawong,Surawongse,Condo,402.0,1.0,1.0,39,6.0,,13.727796,100.528959,3,,20.0,20,2014,April,3900000,100000.0
10984740,Bangkok,Din Daeng,Din Daeng,ซอยรัชดาภิเษก 19 ถนนรัชดาภิเษก แขวงดินแดง เขตดินแดง กทม.,Condo,124.0,1.0,1.0,51,2.0,,13.799897,100.573533,2,,9.0,7,2011,July,3000000,58823.529411764706
10936533,Bangkok,Huai Khwang,Sam Sen Nok,Suthisarn Winitchai Road,Condo,112.0,1.0,1.0,30,18.0,,13.7903280588,100.5829030396,1,,5.0,8,2018,,2390000,79666.66666666667
11017042,Bangkok,Huai Khwang,Bang Kapi,"Soi 11, Rama 9 Road",Condo,1980.0,1.0,1.0,38,27.0,,13.755015,100.58362,0,12.0,6.0,11,2022,September,4500000,118421.05263157895
11028087,Bangkok,Huai Khwang,Bang Kapi,349 Rama 9,Condo,1410.0,1.0,1.0,38,15.0,,13.7561628422,100.5831410847,0,15.0,4.0,6,2019,November,3500000,92105.26315789473
10754080,Bangkok,Sai Mai,O Ngoen,Chatuchot Road,Detached House,291.0,4.0,4.0,200,2.0,248.0,13.8986032618,100.6866766547,0,,,1,2017,,6290000,
11034276,Nonthaburi,Bang Bua Thong,Bang Bua Thong,Bang Bua Thong,Detached House,,3.0,2.0,200,2.0,240.0,13.9354695,100.383479,0,5.0,2.0,3,0,,3500000,
10995197,Samut Prakan,Mueang Samut Prakan,Samrong Nuea,Thang Rotfai Sai Kao Road,Condo,719.0,1.0,1.0,29,6.0,,13.6530366471,100.5929537338,1,19.0,13.0,20,2016,December,1990000,68620.68965517242
11017345,Samut Prakan,Phra Samut Jadee,Nai Khlong Bang Pla Kot,Nai Khlong Bang Pla Kot,Townhouse,,3.0,2.0,66,2.0,68.0,13.5856926,100.5408622,0,,,1,0,,1350000,
10931512,Nonthaburi,Pak Kret,Pak Kret,Changwattana Road,Condo,525.0,1.0,1.0,34,6.0,,13.908645,100.511452,0,20.0,3.0,10,2011,July,1590000,46764.705882352944
10981227,Bangkok,Chom Thong,Bang Mot,Rama 2 Road,Condo,616.0,1.0,1.0,30,4.0,,13.678817,100.467872,0,17.0,8.0,6,2013,July,1399999,46666.63333333333
10889763,Bangkok,Huai Khwang,Huai Khwang,99 Tienruammitr Road,Condo,1337.0,1.0,1.0,44,26.0,,13.767,100.582326,0,6.0,9.0,12,2020,September,4200000,95454.54545454546
10969528,Bangkok,Yan Nawa,Bang Phongphang,Soi Sathupradit 49 Sathupradit Road,Condo,396.0,1.0,1.0,28,1.0,,13.683603,100.537726,0,11.0,5.0,6,2013,March,1700000,60714.28571428572
10892966,Bangkok,Ratchathewi,Makkasan,Ratchaprarop,Condo,447.0,2.0,1.0,50,31.0,,13.754418,100.542475,3,,17.0,20,2012,March,6500000,130000.0
10811307,Bangkok,Din Daeng,Din Daeng,Sutthisan Winitchai Road,Condo,410.0,1.0,1.0,34,13.0,,13.790004591,100.570060254,1,,12.0,14,2020,December,4000000,117647.05882352941
11022919,Bangkok,Bang Sue,Bang Sue,877 Bangkok-Nonthaburi Road,Condo,4000.0,1.0,1.0,28,6.0,,13.8194790193,100.5314867447,2,,6.0,5,2017,May,1550000,55357.142857142855
10959271,Bangkok,Khlong Toei,Phra Khanong,Soi Sukhumvit 50,Condo,190.0,2.0,1.0,60,4.0,,13.7014781647,100.5945896489,1,,5.0,3,2021,,5600000,93333.33333333333
10113574,Bangkok,Bang Khun Thian,Tha Kham,พระราม 2,Detached House,,3.0,3.0,203,2.0,216.0,14.0222456159,100.6118622174,0,9.0,1.0,2,0,,5500000,
10792158,Bangkok,Lat Krabang,Lat Krabang,Lat Krabang Road,Condo,462.0,1.0,1.0,29,5.0,,13.72198,100.726383,0,16.0,10.0,12,2019,,2400000,82758.62068965517
10971540,Bangkok,Bang Kapi,Hua Mak,Hua Mak,Townhouse,,3.0,2.0,200,2.0,144.0,13.7581683,100.647812,0,20.0,9.0,17,0,,4990000,
10561718,Bangkok,Din Daeng,Din Daeng,454 Ratchadapisek Road,Condo,729.0,1.0,1.0,34,29.0,,13.786216,100.573084,2,,14.0,15,2015,February,4500000,132352.9411764706
10844494,Bangkok,Huai Khwang,Sam Sen Nok,"Lat Phrao Road, Soi 41, Junction 2",Condo,491.0,1.0,1.0,31,5.0,,13.801771,100.5842062,0,20.0,9.0,4,2011,January,1869000,60290.32258064516
10555736,Nonthaburi,Mueang Nonthaburi,Sai Ma,Saima Soi 7 Road,Condo,606.0,2.0,1.0,27,5.0,,13.8778129194,100.4746494577,0,7.0,2.0,2,2017,November,1860000,68888.88888888889
10983242,Bangkok,Huai Khwang,Huai Khwang,244 Ratchadaphisek Road,Condo,1404.0,1.0,1.0,30,11.0,,13.780265140400001,100.574137746,1,,20.0,20,2021,May,4190000,139666.66666666666
10849853,Nonthaburi,Bang Yai,Bang Muang,Bangyai-Bangkulad Road,Townhouse,299.0,3.0,2.0,95,2.0,84.0,13.84347,100.407094,0,9.0,3.0,8,2017,,2380000,
11029517,Bangkok,Bang Khun Thian,Samae Dam,129/1 ถนนบางขุนเทียน  แขวงแสมดำ  เขตบางขุนเทียน กทม.,Condo,322.0,1.0,1.0,29,3.0,,13.663834,100.429264,0,13.0,6.0,20,2018,July,1550000,53448.275862068964
10161131,Samut Prakan,Mueang Samut Prakan,Thepharak,Soi Srisamit,Detached House,318.0,3.0,3.0,220,2.0,220.0,13.6156787472,100.6336108433,0,,5.0,7,2019,,5300000,
10335993,Nonthaburi,Mueang Nonthaburi,Bang Krang,1 ราชพฤกษ์,Townhouse,,3.0,2.0,115,2.0,80.0,13.8621125,100.5143528,1,,6.0,12,0,,2400000,
10967814,Nonthaburi,Bang Yai,Bang Mae Nang,66/117 Pruksa 76 Soi 9,Townhouse,455.0,3.0,2.0,90,2.0,96.0,13.865967,100.395253,0,,5.0,8,2014,,2390000,
10823442,Bangkok,Bang Na,Bang Na,. ซอยบางนา-ตราด 23 ถนนบางนา-ตราด แขวงบางนา บางนา กทม,Condo,609.0,2.0,1.0,39,2.0,,13.673281,100.636699,0,17.0,12.0,18,2017,March,2800000,71794.8717948718
10754245,Samut Prakan,Bang Phli,Bang Phli Yai,88 เทพารักษ์ Yai,Detached House,,4.0,2.0,120,2.0,200.0,13.6054593,100.6943837,0,,3.0,7,0,,3799000,
10936393,Bangkok,Nong Chok,Lam Phak Chi,Lam Phak Chi,Detached House,,3.0,3.0,224,2.0,224.0,13.8014345,100.8338593,0,16.0,4.0,1,0,,2800000,
10776683,Nonthaburi,Pak Kret,Bang Phut,Bang Phut,Townhouse,,2.0,2.0,80,1.0,880.0,13.9269375,100.5160625,0,7.0,8.0,5,0,,2500000,
11019435,Bangkok,Saphan Sung,Saphan Sung,กาญจนาภิเษก,Townhouse,,3.0,4.0,205,3.0,96.0,13.7406875,100.7038125,0,2.0,,2,0,,4250000,
9737452,Nonthaburi,Bang Yai,Sao Thong Hin,Kanchanaphisek Road,Townhouse,439.0,3.0,2.0,120,2.0,112.0,13.878129,100.398801,0,1.0,11.0,8,0,,3250000,
10932008,Bangkok,Chatuchak,Chom Phon,1090 Phahonyothin Road,Condo,880.0,1.0,1.0,37,4.0,,13.817655756,100.5663641332,3,,11.0,20,2022,January,3800000,102702.7027027027
10967494,Nonthaburi,Bang Bua Thong,Lahan,Lahan,Townhouse,,3.0,2.0,92,2.0,92.0,13.951444,100.4115631,0,,5.0,3,0,,2400000,
10892931,Bangkok,Watthana,Phra Khanong Nuea,289 Sukhumvit 77 Road,Condo,1232.0,1.0,1.0,30,30.0,,13.7111291803,100.6024983942,1,,10.0,17,2012,December,3400000,113333.33333333333
11012904,Samut Prakan,Mueang Samut Prakan,Samrong Nuea,Soi Sukhumvit 72,Condo,68.0,1.0,1.0,30,4.0,,13.6585631253,100.5984257084,1,,7.0,20,2014,,1990000,66333.33333333333
10991986,Bangkok,Huai Khwang,Sam Sen Nok,Soi Ratchadaphisek 18 Pracharat Bumpan Road,Condo,557.0,1.0,1.0,30,7.0,,13.783881,100.585884,0,,13.0,4,2015,March,1450000,48333.333333333336
11021016,Nonthaburi,Pak Kret,Bang Phlap,Ratchapruek Road,Detached House,618.0,3.0,3.0,230,2.0,292.0,13.9372612002,100.4511393876,0,,4.0,4,0,,5800000,
10660149,Bangkok,Chatuchak,Chan Kasem,Soi Ladprao 33 Yak 1,Condo,79.0,1.0,1.0,36,4.0,,13.806445,100.580493,1,,6.0,3,2019,May,3200000,88888.88888888889
9750273,Bangkok,Bang Kapi,Hua Mak,Krungthep Kreetha Road,Townhouse,116.0,3.0,4.0,160,3.0,88.0,13.7539563956,100.6528644268,0,20.0,7.0,8,0,,3990000,
11024942,Bangkok,Phra Khanong,Bang Chak,2097 Sukhumvit Road,Condo,940.0,1.0,1.0,22,14.0,,13.7044772772,100.6024978271,2,,6.0,11,2013,December,2800000,127272.72727272728
10769349,Nonthaburi,Bang Kruai,Maha Sawat,"Soi Suan Phak 32, Plai Bang Road",Townhouse,291.0,3.0,2.0,120,2.0,80.0,13.8025999712,100.4341714744,0,,7.0,5,2015,,2390000,
10726343,Bangkok,Phaya Thai,Sam Sen Nai,Pradipat Road,Condo,1093.0,2.0,2.0,65,8.0,,13.791166,100.543624,3,,11.0,20,2013,June,5990000,92153.84615384616
11046972,Nonthaburi,Pak Kret,Bang Talat,"Soi 4, Chaeng Watthana Road",Condo,988.0,1.0,1.0,31,9.0,,13.899873,100.540041,0,14.0,3.0,1,2012,June,1740000,56129.032258064515
11027759,Nonthaburi,Pak Kret,Ban Mai,Ban Mai,Townhouse,,3.0,2.0,130,2.0,96.0,13.9416125,100.5521719,0,14.0,5.0,7,0,,2690000,
9071856,Bangkok,Chatuchak,Chom Phon,1076 Phahonyothin Road,Condo,1012.0,1.0,1.0,46,18.0,,13.8177698166,100.5650060344,3,,11.0,20,2013,August,3760000,81739.13043478261
10928801,Bangkok,Watthana,Khlong Toei Nuea,131 Asoke Montri Road,Condo,783.0,1.0,1.0,35,18.0,,13.7389135859,100.5608997877,2,,12.0,20,2017,December,7500000,214285.7142857143
11030697,Bangkok,Khlong San,Khlong Ton Sai,333 Krung Thonburi Road,Condo,636.0,1.0,1.0,33,18.0,,13.72181,100.497807,2,,17.0,11,2015,February,3600000,109090.90909090909
10968871,Bangkok,Prawet,Nong Bon,"Chaloem Phrakiat Rama 9 Road, Soi 22",Detached House,75.0,4.0,3.0,180,2.0,236.0,13.67474,100.668484,0,15.0,3.0,4,0,,7790000,
10697616,Bangkok,Khlong Sam Wa,Bang Chan,ถนน เลียบคลองสอง,Detached House,,1.0,0.0,140,2.0,52.0,13.8599750389,100.713895248,0,15.0,10.0,11,0,,3250000,
11010825,Bangkok,Khlong Sam Wa,Sam Wa Tawan Tok,Sam Wa Tawan Tok,Detached House,,4.0,3.0,161,1.0,204.0,13.8929221,100.7041509,0,,1.0,3,0,,5990000,
10945953,Bangkok,Bang Sue,Bang Sue,"301, 647 Ratchadaphisek Road",Condo,669.0,1.0,1.0,40,5.0,,13.829946055,100.5333333214,2,,3.0,2,2010,July,2850000,71250.0
9745536,Bangkok,Huai Khwang,Huai Khwang,ถนนพระราม 9 แขวงห้วยขวาง เขตห้วยขวาง กรุงเทพมหานคร,Condo,1232.0,1.0,1.0,26,18.0,,13.755076,100.567175,3,,14.0,20,2020,July,3360000,129230.76923076923
11008473,Bangkok,Bang Khen,Anusawari,Paholayothin Road,Condo,820.0,1.0,1.0,28,4.0,,13.8881675848,100.6044243644,3,20.0,9.0,9,2020,September,2999000,107107.14285714286
10579753,Nonthaburi,Mueang Nonthaburi,Talat Khwan,Talat Kwan,Townhouse,,3.0,4.0,170,2.0,92.0,13.8360082796,100.503437309,0,20.0,4.0,5,0,,4999999,
9199271,Samut Prakan,Bang Phli,Racha Thewa,Soi King Kaeo 19,Detached House,318.0,3.0,2.0,140,2.0,212.0,13.665954,100.712672,0,4.0,3.0,2,0,,5500000,
10609967,Bangkok,Bang Na,Bang Na,222 Sukhumvit Road,Condo,820.0,1.0,1.0,45,23.0,,13.671067,100.605553,1,,3.0,2,2012,March,4700000,104444.44444444444
10811139,Bangkok,Lat Krabang,Khlong Sam Prawet,Rom Klao Road,Condo,1019.0,1.0,1.0,35,3.0,,13.7307581,100.7465435,1,,4.0,2,2012,September,1590000,45428.57142857143
10768949,Nonthaburi,Bang Yai,Bang Mae Nang,"Soi Wat Phra Non, Kanchanapisek Road",Detached House,467.0,3.0,2.0,130,1.0,200.0,13.852282,100.39742,0,,,7,2018,,4390000,
10797785,Bangkok,Lat Krabang,Khlong Song Ton Nun,145 ถนนพัฒนาชนบท 2,Detached House,,6.0,6.0,450,2.0,224.0,13.7348375,100.7250781,0,5.0,4.0,1,0,,6200000,
10997916,Samut Prakan,Mueang Samut Prakan,Samrong Nuea,"1959 Soi Sukhumvit 109, Sukhumvit Road",Condo,375.0,1.0,1.0,31,3.0,,13.6543491394,100.6054412417,1,,6.0,13,2013,April,1490000,48064.51612903226
10730286,Samut Prakan,Mueang Samut Prakan,Phraek Sa Mai,Phreak Sa Mai,Townhouse,,3.0,2.0,100,2.0,104.0,13.5734814,100.6928804,0,,2.0,1,0,,1950000,
8108310,Bangkok,Bang Khen,Tha Raeng,126/220 Watcharapol Road,Condo,72.0,1.0,1.0,47,3.0,,13.8579984386,100.6451797498,0,,6.0,13,2012,June,1999999,42553.17021276596
10465734,Nonthaburi,Bang Bua Thong,Phimon Rat,Phimonrat,Townhouse,,3.0,2.0,72,2.0,72.0,13.9207936,100.3919033,0,,8.0,5,0,,1650000,
10849230,Bangkok,Chatuchak,Chom Phon,"2 Soi Ladprao 17, Lardplao road",Condo,339.0,2.0,2.0,63,8.0,,13.806883,100.572691,2,,9.0,8,2009,June,5600000,88888.88888888889
10827616,Bangkok,Khlong Toei,Phra Khanong,5 Soi Sukhumvit 38,Condo,112.0,2.0,2.0,74,7.0,,13.721260000000001,100.578032,2,,14.0,20,2004,December,7900000,106756.75675675676
10020155,Nonthaburi,Bang Kruai,Bang Kruai,Bang Kruai,Townhouse,,3.0,2.0,152,2.0,,13.7986875,100.4925625,0,,6.0,2,0,,6000000,
11021848,Bangkok,Saphan Sung,Saphan Sung,"Ramkhamhaeng Road, Soi Miss Teen",Townhouse,,3.0,2.0,105,2.0,68.0,13.768581,100.705373,0,15.0,4.0,3,0,,2480000,
11027752,Samut Prakan,Mueang Samut Prakan,Bang Muang,Bang Mueng,Townhouse,,2.0,2.0,100,2.0,64.0,13.6285125,100.6109844,0,,13.0,11,0,,1490000,
11019179,Bangkok,Ratchathewi,The Mark Ratchada-Airport Link,Chaturathit Road,Condo,420.0,1.0,1.0,35,12.0,,13.754818,100.561163,3,,8.0,20,2012,October,2280000,65142.857142857145
10242324,Bangkok,Bang Kho Laem,Wat Phraya Krai,Soi Chan 44,Condo,99.0,1.0,1.0,30,18.0,,13.7098980025,100.5141931371,1,20.0,11.0,7,2021,,4900000,163333.33333333334
7662250,Bangkok,Phaya Thai,Sam Sen Nai,1377 Phaholyothin Road,Condo,809.0,2.0,2.0,66,32.0,,13.788908,100.545272,2,,14.0,20,2012,September,7500000,113636.36363636363
9970123,Samut Prakan,Mueang Samut Prakan,Samrong Nuea,577 Tambon Samrong Nua,Condo,1210.0,1.0,1.0,40,9.0,,13.6530497669,100.6436776098,0,6.0,9.0,7,2008,December,1690000,42250.0
8822627,Bangkok,Bang Rak,Silom,3 Sriwiang Road,Condo,137.0,1.0,1.0,46,18.0,,13.7205308454,100.521173373,3,,18.0,20,2006,January,6500000,141304.34782608695
10960058,Bangkok,Bang Khen,Anusawari,"2/282 Soi Phahon Yothin 52,  Phahon Yothin Road",Condo,275.0,1.0,1.0,31,7.0,,13.894968,100.611887,0,18.0,10.0,10,2018,January,2450000,79032.25806451614
6924719,Bangkok,Khlong Sam Wa,Bang Chan,Thanon Liap Khlong Song,Detached House,,4.0,4.0,211,2.0,300.0,13.8607509963,100.7110588156,0,16.0,6.0,10,0,,8200000,
10584451,Bangkok,Huai Khwang,Bang Kapi,Chaturathit Road,Condo,630.0,1.0,1.0,44,18.0,,13.7504753064,100.574728071,0,20.0,14.0,19,2010,,2490000,56590.90909090909
10289245,Bangkok,Din Daeng,Din Daeng,622 Asoke-Dindang,Condo,439.0,2.0,2.0,50,12.0,,13.757318099999999,100.559286,2,,11.0,20,2009,December,3800000,76000.0
10962481,Nonthaburi,Bang Bua Thong,Bang Khu Rat,Soi Temrak Village,Townhouse,539.0,2.0,2.0,72,2.0,64.0,13.910739,100.36782,0,,4.0,3,0,,1200000,
11007986,Bangkok,Chatuchak,Chom Phon,Soi Ratchada 19,Condo,70.0,2.0,1.0,40,5.0,,13.800565,100.573587,2,,10.0,8,2014,,3800000,95000.0
10912981,Nonthaburi,Bang Bua Thong,Bang Rak Phatthana,Bang Rak Pattana,Detached House,,4.0,3.0,210,2.0,200.0,13.9006875,100.3800625,0,,1.0,2,0,,5900000,
10923348,Nonthaburi,Mueang Nonthaburi,Bang Kraso,26/1  Rattanathibet Road,Condo,1232.0,1.0,1.0,31,16.0,,13.8637736562,100.5010689973,2,,14.0,15,2011,June,980000,31612.90322580645
10963331,Bangkok,Khlong Toei,Phra Khanong,1120 Sukhumvit Road,Condo,460.0,1.0,1.0,35,16.0,,13.7128270964,100.5942278251,1,,17.0,20,2012,December,6200000,177142.85714285713
11028265,Bangkok,Bang Sue,Wong Sawang,1333/1 ถนนกรุงเทพนนทบุรี แขวงวงศ์สว่าง เขตบางซื่อ,Condo,1287.0,1.0,1.0,32,6.0,,13.829169,100.527111,1,,2.0,2,2018,May,2600000,81250.0
11014509,Samut Prakan,Mueang Samut Prakan,Samrong Nuea,ถนนเทพารักษ์ ตำบลสำโรงเหนือ อำเภอเมือง สมุทรปราการ,Condo,2041.0,1.0,1.0,23,5.0,,13.626218,100.629021,0,16.0,10.0,14,2017,March,1290000,56086.95652173913
10070104,Nonthaburi,Pak Kret,Bang Talat,สามัคคี,Detached House,,3.0,3.0,187,2.0,288.0,13.9077337,100.4958678,0,14.0,7.0,6,0,,9300000,
11001432,Nonthaburi,Bang Kruai,Bang Kruai,Bang Kruai,Townhouse,,4.0,3.0,130,2.0,96.0,13.8135951,100.4227992,0,,6.0,1,0,,3190000,
10856865,Samut Prakan,Mueang Samut Prakan,Pak Nam,ถนนสุขุมวิท,Townhouse,,4.0,5.0,92,2.0,92.0,13.5998693,100.5985864,1,20.0,12.0,8,0,,2800000,
10848703,Bangkok,Watthana,Khlong Tan Nuea,9 Sukhumvit 49 Rd,Condo,183.0,1.0,1.0,45,7.0,,13.7285780159,100.5755317202,2,,18.0,20,2016,March,7100000,157777.77777777778
10883909,Samut Prakan,Mueang Samut Prakan,Bang Muang,Bang Mueng,Detached House,,3.0,3.0,145,1.0,216.0,13.6009375,100.6220625,0,5.0,6.0,2,0,,6550000,
10688800,Bangkok,Sai Mai,O Ngoen,Sukhaphiban 5 Road,Detached House,886.0,5.0,3.0,164,1.0,236.0,13.910425,100.674728,0,10.0,6.0,2,0,,6490000,
10855067,Nonthaburi,Bang Bua Thong,Bang Bua Thong,Bang Bua Thong,Detached House,,2.0,3.0,100,2.0,204.0,13.9606625,100.3611719,0,9.0,2.0,2,0,,3790000,
11031720,Bangkok,Huai Khwang,Huai Khwang,279 Ratchadapisaek Road,Condo,837.0,2.0,2.0,57,32.0,,13.7828917965,100.574656751,2,,20.0,20,2013,December,6500000,114035.08771929824
11014987,Nonthaburi,Bang Bua Thong,Phimon Rat,Phimonrat,Townhouse,,2.0,2.0,135,2.0,112.0,13.9251625,100.3874219,0,,6.0,2,0,,1980000,
10984297,Bangkok,Suan Luang,Suan Luang,ถนนสุขุมวิท 77,Townhouse,,2.0,2.0,132,1.0,132.0,13.7060625,100.6249375,0,20.0,6.0,3,0,,3900000,
10934861,Bangkok,Ratchathewi,Life Asoke - Rama 9,626 Asoke-Dindaeng Road,Condo,2248.0,1.0,1.0,26,26.0,,13.755035,100.56361,3,,10.0,20,2020,January,3690000,141923.07692307694
10335915,Samut Prakan,Bang Bo,Bang Bo,"Soi ABAC Bangna, Bangna-Trad Road Km 26",Condo,1210.0,1.0,1.0,30,2.0,,13.6037002845,100.8472180529,0,,,1,2017,January,1290000,43000.0
10892463,Bangkok,Watthana,Khlong Tan Nuea,35 Soi Sukhumvit 39,Condo,352.0,1.0,1.0,30,18.0,,13.734047,100.571313,1,,19.0,20,2022,August,7200000,240000.0
11010719,Bangkok,Prawet,Prawet,Phatthanakan Road,Townhouse,,1.0,1.0,100,2.0,76.0,13.700815,100.675364,0,18.0,2.0,2,0,,2190000,
11031089,Bangkok,Sathon,Thung Wat Don,55 Soi Chan 18/7 Chan Road,Condo,376.0,1.0,1.0,35,18.0,,13.707097,100.526724,0,20.0,18.0,11,2016,December,3800000,108571.42857142857
10863547,Nonthaburi,Mueang Nonthaburi,Talat Khwan,Tiwanon Road,Condo,520.0,2.0,1.0,62,18.0,,13.842622,100.510285,2,,3.0,3,2011,June,2590000,41774.1935483871
10726828,Bangkok,Din Daeng,Din Daeng,"Soi Inthamara 47, Ratchadaphisek Road",Condo,441.0,1.0,1.0,27,3.0,,13.7841189237,100.5713730635,2,,16.0,18,2011,June,1950000,72222.22222222222
10977882,Bangkok,Khlong Toei,Phra Khanong,"55 Soi Sukhumvit 36, Sukhumvit Road",Condo,496.0,1.0,1.0,34,10.0,,13.721547,100.576713,2,,15.0,20,2016,December,6900000,202941.17647058822
7551453,Bangkok,Thon Buri,Talat Phlu,ถนนรัชดาภิเษก แขวงตลาดพลู เขตธนบุรี กทม.,Condo,590.0,1.0,1.0,32,2.0,,13.716642,100.476479,3,,7.0,18,2016,May,1800000,56250.0
10618787,Bangkok,Rat Burana,Bang Pa Kok,Soi Ratburana 11,Condo,696.0,1.0,1.0,26,3.0,,13.690501,100.489254,0,20.0,12.0,9,2017,,1650000,63461.53846153846
10701673,Bangkok,Khlong San,Khlong Ton Sai,44 KrungThonBuri Road,Condo,201.0,1.0,1.0,48,9.0,,13.720595092,100.4948228643,3,,20.0,11,2014,September,5500000,114583.33333333333
11010893,Bangkok,Chatuchak,Chom Phon,Ladprao Road,Condo,497.0,1.0,1.0,35,18.0,,13.805223,100.574215,2,,9.0,9,2017,February,5560000,158857.14285714287
10913873,Samut Prakan,Bang Phli,Bang Phli Yai,455 Bang Phli - King Kaew Road Yai,Detached House,269.0,3.0,3.0,190,2.0,236.0,13.6282858817,100.7110368838,0,5.0,3.0,20,2010,,6290000,
10995306,Nonthaburi,Mueang Nonthaburi,Bang Kraso,26/1  Rattanathibet Road,Condo,1232.0,1.0,1.0,31,19.0,,13.8637736562,100.5010689973,2,,14.0,15,2011,June,1290000,41612.903225806454
10847751,Bangkok,Din Daeng,Din Daeng,622 Asoke-Dindang,Condo,439.0,1.0,1.0,31,6.0,,13.757318099999999,100.559286,2,,11.0,20,2009,December,1890000,60967.74193548387
8198328,Bangkok,Bueng Kum,Khlong Kum,. ถนนเสรีไทย แขวงคลองกุ่ม เขตบึงกุ่ม กรุงเทพมหานคร,Condo,505.0,1.0,1.0,24,4.0,,13.776403,100.661409,0,20.0,7.0,10,2019,September,1290000,53750.0
9786053,Bangkok,Bang Na,Bang Na,"Soi Udom Suk 58, Sukhumvit Road",Condo,840.0,2.0,2.0,48,1.0,,13.6753631072,100.6376787733,0,17.0,12.0,18,2014,July,2600000,54166.666666666664
11033355,Bangkok,Ratchathewi,Thanon Phetchaburi,ซอยเพชรบุรี 12 แขวงถนนเพชรบุรี เขตราชเทวี กทม.,Condo,179.0,1.0,1.0,27,18.0,,13.750727,100.529421,3,,18.0,20,2017,September,3690000,136666.66666666666
10559501,Bangkok,Phra Khanong,Bang Chak,ซอยสุขุมวิท 62 ถนนสุขุมวิท บางจาก พระโขนง กทม.,Condo,438.0,1.0,1.0,30,20.0,,13.694998,100.603537,2,,4.0,6,2019,March,4150000,138333.33333333334
10755313,Nonthaburi,Bang Bua Thong,Bang Rak Phatthana,Bang Rak Pattana,Townhouse,,3.0,2.0,95,2.0,72.0,13.8886876,100.408559,2,,10.0,13,0,,1790000,
10996926,Nonthaburi,Bang Bua Thong,Bang Bua Thong,บางกรวย-ไทรน้อย,Townhouse,,4.0,2.0,120,2.0,84.0,13.9354695,100.383479,0,5.0,2.0,3,0,,1790000,
10970131,Bangkok,Phasi Charoen,Bang Wa,Thonburi Court Road,Townhouse,445.0,3.0,3.0,134,2.0,68.0,13.7000138684,100.4286040891,0,3.0,5.0,3,2016,,4200000,
11029387,Bangkok,Yan Nawa,Bang Phongphang,772 Rama 3 Road,Condo,1088.0,1.0,1.0,34,28.0,,13.6746535213,100.5322525595,1,17.0,3.0,4,2019,January,4500000,132352.9411764706
9686413,Bangkok,Wang Thonglang,Saphan Song,15/134 Chokchai 4 Road,Condo,325.0,1.0,1.0,25,7.0,,13.798638,100.595882,0,20.0,12.0,12,2018,January,2590000,103600.0
6198333,Bangkok,Lat Krabang,Thap Yao,ซอยบางเทศธรรมอยู่สุข ลาดกระบัง,Detached House,,4.0,4.0,280,2.0,268.0,13.713578,100.794182,0,8.0,7.0,3,0,,4400000,
10848211,Bangkok,Phra Khanong,Bang Chak,3009 Sukhumvit 101 Road,Condo,778.0,1.0,1.0,27,30.0,,13.6919401018,100.6083053577,2,,8.0,12,2020,January,4130000,152962.96296296295
10951929,Bangkok,Din Daeng,Lumpini Suite Dindaeng-Ratchaprarop,ถนนดินแดง แขวงดินแดง เขตดินแดง กรุงเทพมหานคร,Condo,491.0,1.0,1.0,24,9.0,,13.763003,100.546395,0,,13.0,20,2018,January,2550000,106250.0
10613753,Bangkok,Din Daeng,Din Daeng,Din Daeng Road,Condo,473.0,1.0,1.0,35,5.0,,13.7557622633,100.563245373,3,,10.0,20,2019,December,5499000,157114.2857142857
10609785,Bangkok,Watthana,Khlong Tan Nuea,33 Sukhumvit Road,Condo,99.0,1.0,1.0,40,4.0,,13.735118,100.567639,2,,17.0,20,2012,,7062000,176550.0
10673841,Samut Prakan,Bang Phli,Bang Phli Yai,Bang Na-Trat Road Yai,Detached House,144.0,3.0,2.0,140,2.0,108.0,13.6234820224,100.6865428271,0,,1.0,1,2019,,3200000,
5165252,Bangkok,Watthana,The Alcove Sukhumvit 49,Soi Sukhumvit 49 Sukhumvit Road,Condo,48.0,2.0,2.0,69,18.0,,13.72988,100.576015,2,,18.0,20,2015,March,8100000,117391.30434782608
11005022,Nonthaburi,Bang Bua Thong,Phimon Rat,Ban Kluay-Sai Noi Road,Townhouse,476.0,2.0,1.0,90,2.0,96.0,13.9294578502,100.3564516549,0,,4.0,3,0,,1450000,
10971912,Bangkok,Thon Buri,Dao Khanong,Ratchada Road,Condo,690.0,1.0,1.0,33,13.0,,13.7137166456,100.4783513411,2,,7.0,19,2018,August,4350000,131818.18181818182
10752835,Nonthaburi,Bang Bua Thong,Lam Pho,Soi Fuengsuk Village 1,Detached House,,4.0,2.0,240,2.0,204.0,13.9677144592,100.4288131389,0,,3.0,4,0,,2900000,
11032601,Bangkok,Bang Na,Bang Na,"20 Soi Lasalle 19,  Sukhumvit 105 Road",Condo,1384.0,1.0,1.0,31,6.0,,13.659589,100.63108,0,2.0,6.0,4,2016,July,1400000,45161.290322580644
10916770,Bangkok,Din Daeng,The Kris Express 2,28 ซอยรัชดาภิเษก 19 ถนนรัชดาภิเษก แขวง/เขตดินแดง กทม,Condo,98.0,2.0,2.0,75,6.0,,13.799074,100.573936,2,,9.0,7,2012,June,5100000,68000.0
11017521,Bangkok,Din Daeng,Din Daeng,454 Ratchadapisek Road,Condo,729.0,2.0,2.0,67,10.0,,13.786216,100.573084,2,,14.0,15,2015,February,9200000,137313.4328358209
10709567,Samut Prakan,Mueang Samut Prakan,Bang Muang,ศรีนครินทร์,Townhouse,,2.0,2.0,100,2.0,68.0,13.6086789,100.6164518,0,9.0,6.0,4,0,,1700000,
11029954,Bangkok,Sai Mai,O Ngoen,O-Ngoen,Detached House,,3.0,2.0,118,2.0,236.0,13.9012625,100.6832031,0,,1.0,1,0,,5500000,
11038563,Nonthaburi,Mueang Nonthaburi,Bang Rak Noi,Ratchapruek Road,Detached House,184.0,3.0,3.0,120,2.0,208.0,13.859576,100.455613,0,6.0,,1,2019,,5900000,
10907262,Samut Prakan,Bang Phli,Bang Kaeo,Bangna-Trad Road,Detached House,81.0,3.0,3.0,134,2.0,140.0,13.6461781272,100.6715272681,0,10.0,6.0,10,0,,6300000,
10935822,Bangkok,Ratchathewi,Thanon Phaya Thai,46 Phaya Thai Road,Condo,635.0,1.0,2.0,66,21.0,,13.7564837079,100.5318088,3,,7.0,20,1994,,6900000,104545.45454545454
10144772,Bangkok,Watthana,Khlong Toei Nuea,Soi Sukhumvit 15,Condo,500.0,1.0,1.0,24,8.0,,13.7419566198,100.5582515926,3,,12.0,20,2013,January,3600000,150000.0
10384071,Samut Prakan,Mueang Samut Prakan,Thepharak,Thepharak,Townhouse,,7.0,4.0,202,2.0,268.0,13.6309772,100.6168401,0,,13.0,6,0,,6500000,
10231728,Bangkok,Ratchathewi,The Mark Ratchada-Airport Link,Chaturathit Road,Condo,420.0,1.0,1.0,38,16.0,,13.754818,100.561163,3,,8.0,20,2012,October,3300000,86842.1052631579
10701653,Samut Prakan,Phra Pradaeng,Samrong,Thang Rotfai Sai Kao Paknam Road,Townhouse,81.0,3.0,2.0,150,2.0,92.0,13.6535976006,100.5918377288,1,16.0,15.0,20,2019,,5290000,
11032231,Bangkok,Bangkok Noi,Arun Amarin,151 Boromarajonani Road Noi,Condo,1408.0,1.0,1.0,30,19.0,,13.785537,100.469754,0,20.0,10.0,5,2012,July,1850000,61666.666666666664
10835678,Nonthaburi,Mueang Nonthaburi,Talat Khwan,Tiwanon Road,Condo,520.0,1.0,1.0,52,2.0,,13.842622,100.510285,2,,3.0,3,2011,June,2250000,43269.230769230766
10987923,Nonthaburi,Pak Kret,Tha It,Soi Wat Tha It,Detached House,187.0,3.0,2.0,140,2.0,292.0,13.896548775,100.4798247954,0,,1.0,1,2014,,5390000,
10931956,Bangkok,Watthana,Phra Khanong Nuea,Sukhumvit Road,Condo,540.0,1.0,1.0,41,17.0,,13.717112552,100.5891036987,2,,20.0,20,2009,September,4500000,109756.09756097561
10960045,Bangkok,Khlong Toei,Phra Khanong,"Soi Sukhumvit 50, Sukhumvit Road",Condo,199.0,1.0,1.0,31,2.0,,13.7057917818,100.598309703,1,,7.0,14,2012,April,2163000,69774.19354838709
10810142,Bangkok,Bang Sue,Bang Sue,571 Pracha Rat Sai 2 Road,Condo,661.0,1.0,1.0,26,24.0,,13.805998,100.53296,3,,3.0,8,2018,May,2690000,103461.53846153847
10652972,Bangkok,Lak Si,Talat Bang Khen,Soi Vibhavadi Rangsit,Townhouse,207.0,3.0,4.0,20,2.0,772.0,13.8715212729,100.5862399679,1,,6.0,2,2016,,6500000,
10845176,Bangkok,Lat Krabang,Thap Yao,หลวงแพ่ง,Townhouse,,2.0,2.0,150,2.0,88.0,13.711860399999999,100.8172803,0,6.0,8.0,5,0,,1500000,
10970361,Nonthaburi,Bang Kruai,Sala Klang,Sala Klang,Detached House,,4.0,3.0,150,2.0,144.0,13.8105875,100.3602656,0,,,2,0,,4400000,
10611112,Bangkok,Huai Khwang,Huai Khwang,Rama 9 Road,Condo,2330.0,1.0,1.0,37,15.0,,13.756497739,100.5713340688,1,,14.0,20,2010,June,3800000,102702.7027027027
10533495,Samut Prakan,Bang Phli,Bang Phli Yai,Thepharak Road Yai,Detached House,248.0,3.0,3.0,139,2.0,212.0,13.6102699252,100.6737268197,0,,3.0,6,0,,5400000,
10846925,Bangkok,Watthana,Khlong Tan Nuea,Sukhumvit 55,Condo,1098.0,1.0,1.0,33,18.0,,13.7316075514,100.584646842,0,20.0,18.0,20,2022,October,8370000,253636.36363636365
10931825,Bangkok,Din Daeng,Din Daeng,Sutthisan Winitchai Road,Condo,410.0,1.0,1.0,29,12.0,,13.790004591,100.570060254,1,,12.0,14,2020,December,3150000,108620.68965517242
11019665,Samut Prakan,Bang Phli,Bang Phli Yai,Bang Phli Yai,Townhouse,,3.0,2.0,100,2.0,92.0,13.6156625,100.6877344,0,,8.0,1,0,,2250000,
10883623,Bangkok,Wang Thonglang,Phlapphla,Soi Ramkhamhaeng 39,Townhouse,350.0,3.0,3.0,160,2.0,76.0,13.7616621394,100.6121388726,0,20.0,12.0,19,0,,5700000,
10626354,Nonthaburi,Mueang Nonthaburi,Bang Kraso,Rattanathibet,Condo,570.0,1.0,1.0,31,3.0,,13.8702001,100.485299,1,,4.0,4,2014,December,1700000,54838.709677419356
10955979,Samut Prakan,Mueang Samut Prakan,Bang Mueang Mai,Bang Mueang Mai,Detached House,1025.0,2.0,2.0,100,2.0,172.0,13.6331631569,100.6053057832,0,1.0,12.0,8,0,,4500000,
11025651,Nonthaburi,Mueang Nonthaburi,Talat Khwan,ฺBangkok-Nonthaburi Road,Condo,646.0,1.0,1.0,48,15.0,,13.841809359700001,100.5114689681,2,,3.0,5,2015,March,2600000,54166.666666666664
10545145,Bangkok,Chatuchak,Sena Nikhom,Phahonyothin Road,Condo,332.0,1.0,1.0,34,18.0,,13.8373985392,100.5744410268,2,20.0,7.0,10,2020,,5000000,147058.82352941178
10987268,Samut Prakan,Mueang Samut Prakan,Samrong Nuea,Sukhumvit 107 Road,Condo,1113.0,2.0,1.0,40,3.0,,13.65832,100.606151,1,,8.0,7,2019,August,1999000,49975.0
10961566,Bangkok,Bang Phlat,Bang Bamru,28 Borommaratchachonnani Road,Condo,580.0,2.0,2.0,61,13.0,,13.7752228799,100.4811251683,1,,17.0,20,2006,December,4390000,71967.2131147541
10776950,Nonthaburi,Bang Kruai,Maha Sawat,Soi Suan Phak 32,Townhouse,249.0,3.0,2.0,110,2.0,68.0,13.805236,100.43329,0,2.0,8.0,3,0,,3290000,
10982400,Bangkok,Bang Na,Bang Na,195 Sanphawut Road,Condo,1569.0,1.0,1.0,32,27.0,,13.673215,100.604476,2,,6.0,4,2017,January,3000000,93750.0
10545455,Bangkok,Phaya Thai,Sam Sen Nai,1415 Phaholyothin Road,Condo,357.0,2.0,2.0,82,18.0,,13.7893741962,100.5475706908,3,,13.0,20,2007,December,7500000,91463.41463414633
8703196,Nonthaburi,Pak Kret,Bang Phut,Bang Phut,Townhouse,,2.0,2.0,120,2.0,72.0,13.9106875,100.5248125,0,8.0,9.0,8,0,,2590000,
10858969,Bangkok,Phasi Charoen,Bang Wa,27 Phet Kasem 27 Road,Condo,638.0,2.0,1.0,42,5.0,,13.7182239,100.453682,3,,1.0,6,2017,January,4350000,103571.42857142857
10660888,Samut Prakan,Bang Phli,Bang Kaeo,Bang Kaeo,Townhouse,,3.0,2.0,100,2.0,100.0,13.6392125,100.6486406,0,,2.0,1,0,,2500000,
10537354,Bangkok,Bang Khun Thian,Samae Dam,กัลปพฤกษ์,Townhouse,,3.0,3.0,180,2.0,88.0,13.6251869,100.417181,0,,3.0,4,0,,3900000,
10942558,Nonthaburi,Bang Bua Thong,Bang Rak Phatthana,Soi Ban Kluai-Sai Noi,Townhouse,266.0,3.0,2.0,120,2.0,72.0,13.919194020700001,100.3845962288,0,,5.0,2,0,,1990000,
11011688,Nonthaburi,Pak Kret,Pak Kret,ติวานนท์,Detached House,,2.0,1.0,100,2.0,120.0,13.9096875,100.5025625,0,20.0,8.0,10,0,,2190000,
10609302,Bangkok,Pathum Wan,Lumphini,Ploenchit Road,Condo,597.0,1.0,1.0,56,12.0,,13.7479962605,100.5457873142,3,,16.0,20,2009,June,7700000,137500.0
10264929,Bangkok,Yan Nawa,Bang Phongphang,. Ratchadaphisek Road,Condo,566.0,1.0,1.0,35,10.0,,13.702626,100.542099,2,20.0,14.0,20,2018,June,3550000,101428.57142857143
10954391,Nonthaburi,Mueang Nonthaburi,Talat Khwan,8 Tiwanon Road,Condo,373.0,1.0,1.0,40,23.0,,13.8503919555,100.5164246705,1,,6.0,10,2018,January,3605000,90125.0
10669216,Nonthaburi,Bang Yai,Sao Thong Hin,บ้านเลขที่ 95/17 คลองถนน,Townhouse,,4.0,2.0,120,2.0,92.0,13.8448335,100.3610179,0,,6.0,3,0,,2390000,
6361986,Samut Prakan,Bang Phli,Racha Thewa,Rachathewa,Detached House,,4.0,3.0,171,2.0,216.0,13.6833448083,100.7117127117,0,,4.0,4,0,,9500000,
10769735,Samut Prakan,Bang Phli,Bang Phli Yai,ถนนบางนา-ตราด Yai,Detached House,,4.0,3.0,244,2.0,248.0,13.6429564,100.6860344,0,6.0,7.0,15,0,,4700000,
10799580,Bangkok,Sathon,Thung Maha Mek,88 Narathiwatratchanakharin Road,Condo,493.0,1.0,1.0,65,18.0,,13.7193765276,100.5310924735,3,20.0,20.0,20,2009,July,8900000,136923.07692307694
10900519,Samut Prakan,Bang Bo,Bang Bo,"Soi ABAC Bangna, Bangna-Trad Road Km 26",Condo,1210.0,1.0,1.0,30,18.0,,13.6037002845,100.8472180529,0,,,1,2017,January,1300000,43333.333333333336
9800231,Bangkok,Watthana,Khlong Tan Nuea,"889 Soi Sukhumvit 55, Thonglor Road",Condo,447.0,1.0,1.0,36,9.0,,13.7372155506,100.5833727877,0,20.0,17.0,20,2010,January,5500000,152777.77777777778
11019175,Samut Prakan,Mueang Samut Prakan,Samrong Nuea,Sukhumvit 107 Road,Condo,304.0,1.0,2.0,51,18.0,,13.657562,100.603325,1,,7.0,10,2020,,4300000,84313.72549019608
10465953,Bangkok,Din Daeng,Din Daeng,Dindaeng Road,Condo,500.0,1.0,1.0,34,18.0,,13.756137,100.560813,3,,8.0,20,2012,March,2350000,69117.64705882352
10907155,Samut Prakan,Mueang Samut Prakan,Samrong Nuea,เทพารักษ์,Townhouse,,3.0,1.0,76,2.0,80.0,13.6293566046,100.6235499521,0,15.0,9.0,10,0,,2500000,
10844111,Samut Prakan,Bang Phli,Bang Kaeo,บัวนครินทร์,Townhouse,,3.0,2.0,112,2.0,112.0,13.6318625,100.6538281,0,,,2,0,,2850000,
11007143,Bangkok,Phra Khanong,Bang Chak,2097 Sukhumvit Road,Condo,940.0,1.0,1.0,22,14.0,,13.7044772772,100.6024978271,2,,6.0,11,2013,December,2800000,127272.72727272728
10849303,Bangkok,Bang Kapi,Khlong Chan,Khlong Chan,Detached House,,5.0,4.0,297,2.0,204.0,13.7734843038,100.6460413196,0,20.0,13.0,20,0,,6900000,
10541467,Nonthaburi,Bang Kruai,Plai Bang,Plai Bang,Townhouse,,3.0,2.0,100,2.0,76.0,13.8245875,100.4009531,0,,10.0,9,0,,1990000,
10749397,Bangkok,Bang Na,Bang Na,"223,223/1-97 Sanpawut Road",Condo,718.0,1.0,1.0,38,5.0,,13.673274,100.599258,1,,3.0,3,1993,November,1290000,33947.36842105263
10754092,Bangkok,Huai Khwang,Bang Kapi,New Petchaburi Road,Condo,667.0,1.0,1.0,31,18.0,,13.7439701,100.5821163,0,20.0,12.0,13,2016,December,3690000,119032.25806451614
10982954,Bangkok,Khlong San,Khlong Ton Sai,Krung Thon Buri Krung Thon Buri,Condo,79.0,2.0,2.0,52,8.0,,13.722496,100.504598,3,,12.0,20,2014,February,5500000,105769.23076923077
10985020,Samut Prakan,Mueang Samut Prakan,Samrong Nuea,34/2 แบริ่ง34/2,Condo,131.0,1.0,1.0,54,4.0,,13.648915,100.6133816,0,,9.0,8,2013,February,2800000,51851.851851851854
10934683,Bangkok,Bangkok Noi,Arun Amarin,89 Boromarajonani Road Noi,Condo,651.0,1.0,1.0,33,16.0,,13.779919,100.474261,0,20.0,14.0,20,2007,June,2300000,69696.9696969697
10308422,Nonthaburi,Mueang Nonthaburi,Talat Khwan,1 ประชาราษฎร์,Townhouse,,2.0,2.0,110,2.0,76.0,13.9354695,100.383479,0,5.0,2.0,3,0,,2700000,
11018584,Samut Prakan,Mueang Samut Prakan,Bang Muang,Bang Mueng,Townhouse,,3.0,2.0,88,2.0,76.0,13.5698625,100.6169531,0,1.0,7.0,2,0,,2790000,
10790266,Bangkok,Yan Nawa,Bang Phongphang,4 Rama 3 Road,Condo,2405.0,1.0,1.0,33,19.0,,13.6791215755,100.527794,2,20.0,3.0,5,2011,December,2450000,74242.42424242424
10816591,Samut Prakan,Bang Phli,Bang Phli Yai,Bangna-Trad Road Yai,Condo,945.0,1.0,1.0,25,12.0,,13.640131,100.680643,0,5.0,5.0,10,2015,January,1300000,52000.0
10648652,Nonthaburi,Mueang Nonthaburi,Bang Kraso,185 Rattanathibet Road,Condo,1428.0,1.0,1.0,24,10.0,,13.860527,100.508473,2,,9.0,8,2016,June,1350000,56250.0
10937102,Bangkok,Suan Luang,Suan Luang,Srinakarin Road,Condo,558.0,2.0,1.0,45,27.0,,13.73786,100.641762,1,,6.0,1,2020,,5800000,128888.88888888889
8428804,Bangkok,Khlong Toei,Phra Khanong,"55 Soi Sukhumvit 36, Sukhumvit Road",Condo,496.0,1.0,1.0,25,12.0,,13.721547,100.576713,2,,15.0,20,2016,December,3890000,155600.0
10948346,Bangkok,Chatuchak,Lat Yao,238 Ratchadaphisek Road,Condo,390.0,1.0,1.0,55,20.0,,13.828352,100.56588,2,20.0,20.0,9,2009,July,5450000,99090.90909090909
11031753,Bangkok,Ratchathewi,Thanon Phaya Thai,Phetchaburi Road,Condo,550.0,1.0,1.0,37,11.0,,13.7524055522,100.5348806822,3,,19.0,20,2014,December,6800000,183783.7837837838
9615150,Bangkok,Chatuchak,Chom Phon,. Vibhavadi-Rangsit Road,Condo,1533.0,1.0,1.0,30,18.0,,13.812768,100.560436,2,,11.0,20,2018,March,2900000,96666.66666666667
10859885,Nonthaburi,Mueang Nonthaburi,Sai Ma,115 Rattanathibet Road,Condo,1325.0,1.0,1.0,29,4.0,,13.8695902481,100.466331541,1,,4.0,3,2012,June,1200000,41379.31034482759
10662501,Samut Prakan,Mueang Samut Prakan,Thepharak,Sukhumvit 115 Road,Condo,998.0,1.0,1.0,35,18.0,,13.637929,100.592683,2,,5.0,6,2018,August,2500000,71428.57142857143
9717719,Bangkok,Bueng Kum,Nuan Chan,Nuan Chan,Townhouse,,3.0,3.0,150,2.0,88.0,13.8400625,100.6364844,0,20.0,6.0,8,0,,3650000,
10894708,Samut Prakan,Phra Samut Jadee,Nai Khlong Bang Pla Kot,ถนนประชาอุทิศ,Detached House,,3.0,2.0,150,2.0,148.0,13.5856926,100.5408622,0,,,1,0,,4190000,
10971661,Bangkok,Bang Rak,Si Phraya,Si Phraya Road,Condo,384.0,2.0,2.0,80,1.0,,13.7312279445,100.5221258679,1,,13.0,20,2023,,8990000,112375.0
11024946,Samut Prakan,Bang Phli,Bang Phli Yai,Bangna-Trad Road Yai,Condo,945.0,1.0,1.0,25,18.0,,13.640131,100.680643,0,5.0,5.0,10,2015,January,1230000,49200.0
10718760,Bangkok,Bang Khen,Tha Raeng,Pradit Manutham Road,Condo,1168.0,2.0,1.0,48,3.0,,13.8473266317,100.6403853448,0,20.0,10.0,8,2015,February,3190000,66458.33333333333
10799683,Bangkok,Khlong Toei,Khlong Tan,776 Soi Sukhumvit 36 Sukhumvit Road,Condo,152.0,1.0,1.0,54,3.0,,13.724344,100.577206,1,20.0,16.0,20,2014,December,7000000,129629.62962962964
10609604,Bangkok,Khlong Toei,Phra Khanong,Sukhumvit Road,Condo,837.0,2.0,2.0,53,15.0,,13.7109650149,100.5938943245,2,,17.0,18,2013,December,5940000,112075.47169811321
11030199,Bangkok,Huai Khwang,Bang Kapi,349 Rama 9,Condo,1410.0,1.0,1.0,37,16.0,,13.7561628422,100.5831410847,0,15.0,4.0,6,2019,November,3200000,86486.48648648648
10081547,Nonthaburi,Bang Kruai,Bang Kruai,Bang Kruai,Townhouse,,3.0,3.0,150,2.0,92.0,13.7986875,100.4925625,0,,6.0,2,0,,6500000,
10959759,Bangkok,Din Daeng,Din Daeng,Soi Ratchadaphisek 3 Ratchadaphisek Road,Condo,321.0,2.0,2.0,74,6.0,,13.76284,100.564818,2,,18.0,20,2017,January,8990000,121486.48648648648
10641102,Nonthaburi,Pak Kret,Pak Kret,Chaengwattana Road,Condo,427.0,1.0,1.0,34,2.0,,13.9066980718,100.5249365681,0,10.0,7.0,10,2016,February,1890000,55588.23529411765
9211285,Bangkok,Khlong San,Bang Lamphu Lang,134 Krung Thonburi Road,Condo,529.0,1.0,1.0,30,18.0,,13.72019284,100.5027080086,3,,11.0,9,2014,March,3300000,110000.0
10802477,Nonthaburi,Bang Bua Thong,Bang Rak Phatthana,ถนนกาญจนาภิเษก,Townhouse,,2.0,2.0,88,2.0,88.0,13.8982419,100.4075849,1,,8.0,5,0,,2100000,
10885275,Bangkok,Suan Luang,Suan Luang,On Nut Rd,Condo,956.0,1.0,1.0,31,5.0,,13.7122360347,100.6070977546,0,,7.0,11,2013,October,2050000,66129.03225806452
10556913,Bangkok,Watthana,Khlong Tan Nuea,Sukhumvit,Condo,62.0,2.0,2.0,88,2.0,,13.74207,100.571709,0,18.0,10.0,15,2014,April,4800000,54545.454545454544
9615152,Bangkok,Chatuchak,Chom Phon,. Vibhavadi-Rangsit Road,Condo,1533.0,1.0,1.0,31,18.0,,13.812768,100.560436,2,,11.0,20,2018,March,3000000,96774.19354838709
11006905,Samut Prakan,Bang Bo,Bang Phriang,Bang Phriang,Townhouse,,2.0,1.0,100,2.0,72.0,13.5587125,100.8131094,0,,2.0,1,0,,1190000,
10993174,Samut Prakan,Mueang Samut Prakan,Thepharak,Sukhumvit 115 Road,Condo,998.0,1.0,1.0,35,9.0,,13.637929,100.592683,2,,5.0,6,2018,August,2530000,72285.71428571429
11024748,Bangkok,Watthana,Phra Khanong Nuea,2077 Sukhumvit Road,Condo,490.0,1.0,1.0,35,30.0,,13.706225334700001,100.6012631105,1,,7.0,13,2011,April,4090000,116857.14285714286
10989707,Bangkok,Bang Na,Bang Na,39 Udomsuk Road,Condo,1459.0,1.0,1.0,26,22.0,,13.678787,100.615865,1,,13.0,15,2020,April,2390000,91923.07692307692
10853869,Bangkok,Yan Nawa,Chong Nonsi,Sathu Pradit 19 Alley 3,Condo,190.0,1.0,1.0,58,18.0,,13.7004318821,100.5350233558,1,20.0,20.0,20,2002,December,3200000,55172.41379310345
11010890,Bangkok,Watthana,Khlong Tan Nuea,259 ถนนสุขุมวิท 63 แขวงคลองตันเหนือ เขตวัฒนา กทม.,Condo,537.0,1.0,1.0,30,27.0,,13.7336097538,100.5871954405,0,20.0,20.0,20,2020,December,4790000,159666.66666666666
10934390,Bangkok,Bang Na,Bang Na,105 Sukhumvit,Condo,1113.0,1.0,1.0,27,6.0,,13.661697,100.606707,2,,8.0,9,2019,March,2350000,87037.03703703704
11007500,Bangkok,Chatuchak,Chom Phon,Ladprao Road,Condo,497.0,2.0,2.0,53,16.0,,13.805223,100.574215,2,,9.0,9,2017,February,8290000,156415.09433962265
10536897,Samut Prakan,Mueang Samut Prakan,Samrong Nuea,ถนนเทพารักษ์ ตำบลสำโรงเหนือ อำเภอเมือง สมุทรปราการ,Condo,2041.0,1.0,1.0,26,6.0,,13.626218,100.629021,0,16.0,10.0,14,2017,March,1500000,57692.307692307695
11029962,Bangkok,Bang Khun Thian,Samae Dam,Samae Dam,Townhouse,,3.0,2.0,110,2.0,80.0,13.6142348,100.4059456,0,,6.0,2,0,,1799000,
9643034,Bangkok,Ratchathewi,Thanon Phetchaburi,512 Phetchaburi Road,Condo,623.0,1.0,1.0,35,18.0,,13.751884785,100.5345651607,3,,19.0,20,2017,October,5200000,148571.42857142858
10848008,Bangkok,Watthana,Khlong Tan Nuea,105 Sukhumvit 55 Road,Condo,73.0,1.0,1.0,40,8.0,,13.735578,100.581391,0,20.0,19.0,20,2011,July,4800000,120000.0
10760360,Bangkok,Phaya Thai,Sam Sen Nai,Phaholyothin 14 Road,Condo,79.0,1.0,1.0,29,8.0,,13.7859011681,100.5491937667,3,,10.0,20,2011,September,2490000,85862.06896551725
10891499,Nonthaburi,Pak Kret,Pak Kret,Chaengwattana Road,Condo,1615.0,1.0,1.0,28,8.0,,13.908943642,100.5025085767,0,20.0,7.0,9,2012,January,1890000,67500.0
9997595,Samut Prakan,Mueang Samut Prakan,Pak Nam,Amoradej Road,Condo,667.0,1.0,1.0,28,6.0,,13.603716,100.598177,2,20.0,8.0,5,2013,July,1450000,51785.71428571428
10613618,Bangkok,Watthana,Phra Khanong Nuea,"36 Soi Sukhumvit 63, Ekamai Road",Condo,273.0,1.0,1.0,52,14.0,,13.7219444078,100.5848502884,2,,16.0,20,2011,June,8500000,163461.53846153847
10831590,Bangkok,Min Buri,Min Buri,รามคำแหง176,Townhouse,,2.0,2.0,64,2.0,64.0,13.8402137,100.7323332,0,,2.0,3,0,,2200000,
10652312,Bangkok,Huai Khwang,Bang Kapi,Bang Kapi,Detached House,,4.0,3.0,130,2.0,196.0,13.7572866829,100.5873596198,0,14.0,3.0,4,0,,6500000,
11033604,Bangkok,Bang Phlat,Bang Yi Khan,344/66 Thanon Arun Amarin,Condo,446.0,1.0,1.0,36,2.0,,13.7732173002,100.4906023469,1,,11.0,10,2019,January,3000000,83333.33333333333
10832614,Bangkok,Chatuchak,Chom Phon,Ladprao Rold,Condo,418.0,2.0,2.0,61,17.0,,13.810595,100.56583,3,,11.0,20,2010,June,4950000,81147.54098360655
10942331,Bangkok,Khlong Sam Wa,Bang Chan,Bang Chun,Detached House,,5.0,3.0,500,2.0,320.0,13.8471706,100.7041509,0,4.0,5.0,5,0,,7000000,
11031119,Bangkok,Khlong Sam Wa,Sam Wa Tawan Tok,25/50 หทัยราษฏร์,Detached House,,4.0,3.0,220,2.0,232.0,13.8922659556,100.726402506,0,,2.0,5,0,,4650000,
10865848,Bangkok,Chatuchak,Chan Kasem,Ratchadaphisek,Condo,79.0,2.0,1.0,56,6.0,,13.821032,100.588484,0,,9.0,12,2013,July,2200000,39285.71428571428
11005166,Samut Prakan,Bang Phli,Bang Phli Yai,Bang Phli Yai,Detached House,,3.0,2.0,143,1.0,216.0,13.6179375,100.6940625,0,,2.0,1,0,,5400000,
11011542,Bangkok,Bang Kapi,Hua Mak,ถนนรามคำแหง,Condo,996.0,1.0,1.0,26,9.0,,13.748873,100.606603,1,,5.0,11,2018,September,2390000,91923.07692307692
10745023,Bangkok,Khlong Toei,Khlong Tan,"68 Sukhumvit 24 Alley, Khong Tan",Condo,940.0,1.0,1.0,29,20.0,,13.7253952835,100.5656595582,2,,20.0,20,2017,January,5300000,182758.62068965516
10889981,Bangkok,Bang Khun Thian,Tha Kham,Rama II Rd.,Detached House,110.0,3.0,3.0,150,2.0,204.0,13.615959,100.43711,0,5.0,1.0,2,2013,,4690000,
10947892,Bangkok,Yan Nawa,Bang Phongphang,772 Rama 3 Road,Condo,1088.0,2.0,1.0,55,18.0,,13.6746535213,100.5322525595,1,17.0,3.0,4,2019,January,5800000,105454.54545454546
11010798,Nonthaburi,Bang Bua Thong,Bang Bua Thong,Bang Bua Thong,Townhouse,,3.0,2.0,100,2.0,84.0,13.9531125,100.3707344,0,10.0,3.0,1,0,,1790000,
10597638,Bangkok,Bang Rak,Si Phraya,Rama 4 Road,Condo,1180.0,1.0,1.0,26,39.0,,13.7315835212,100.5311729497,3,,20.0,20,2018,March,6000000,230769.23076923078
11007017,Bangkok,Suan Luang,Suan Luang,Sukhumvit Road,Condo,1450.0,2.0,2.0,45,7.0,,13.7070128896,100.6345496111,0,15.0,8.0,7,2014,February,2850000,63333.333333333336
6492499,Bangkok,Chatuchak,Sena Nikhom,1 เสนานิคม1,Townhouse,,4.0,3.0,210,2.0,108.0,13.8317797,100.5903796,0,20.0,7.0,6,0,,7900000,
11025701,Nonthaburi,Bang Kruai,Maha Sawat,"Soi Suan Phak 32, Plai Bang Road",Detached House,38.0,3.0,2.0,143,1.0,232.0,13.807342,100.426718,0,1.0,7.0,2,0,,5500000,
10848037,Bangkok,Phra Khanong,Bang Chak,62/3 ถนนสุขุมวิท,Condo,141.0,1.0,1.0,42,2.0,,13.689507,100.608786,2,,7.0,15,2015,November,4300000,102380.95238095238
11019880,Bangkok,Huai Khwang,Huai Khwang,131 Rama 9 Road,Condo,1991.0,2.0,1.0,59,33.0,,13.760072,100.569425,2,,13.0,20,2015,December,7500000,127118.64406779662
11031942,Bangkok,Din Daeng,Din Daeng,454 Ratchadapisek Road,Condo,729.0,1.0,1.0,47,21.0,,13.786216,100.573084,2,,14.0,15,2015,February,5700000,121276.59574468085
9701633,Bangkok,Phra Khanong,Bang Chak,8 ซอย ประวิทย์และเพื่อน 18,Townhouse,,3.0,3.0,116,2.0,,13.6859773,100.635432,0,4.0,8.0,10,0,,4800000,
9965183,Nonthaburi,Bang Bua Thong,Lam Pho,Lam Pho,Detached House,,3.0,2.0,402,2.0,400.0,13.9743526,100.4115631,0,,1.0,2,0,,4000000,
11004339,Nonthaburi,Mueang Nonthaburi,Bang Kraso,"Soi Rattanathibet 26, Rattanathibet Road",Condo,1949.0,1.0,1.0,26,2.0,,13.866871,100.489898,1,,8.0,14,2009,July,890000,34230.769230769234
10604808,Bangkok,Bang Na,Bang Na,Bangna-Trad 13 Bangna-Trad 13,Condo,79.0,2.0,2.0,78,7.0,,13.670547,100.624587,0,11.0,4.0,5,2014,August,4900000,62820.51282051282
10143220,Nonthaburi,Bang Kruai,Sala Klang,Samret Phatthana Road,Detached House,483.0,4.0,2.0,180,2.0,200.0,13.811151,100.351998,0,,1.0,2,0,,5300000,
10397404,Bangkok,Suan Luang,Suan Luang,Ramkhamhaeng Road,Condo,1003.0,2.0,2.0,46,18.0,,13.743283,100.603216,1,,9.0,8,2018,January,4050000,88043.47826086957
11031456,Bangkok,Huai Khwang,Sam Sen Nok,รัชดาภิเษก ถนนสุทธิสารวินิจฉัย,Condo,73.0,2.0,1.0,49,4.0,,13.789541,100.5870031676,0,11.0,5.0,4,2013,March,3690000,75306.12244897959
11046206,Nonthaburi,Bang Bua Thong,Phimon Rat,Phimonrat,Townhouse,,2.0,2.0,72,1.0,72.0,13.9338125,100.3655625,0,,4.0,2,0,,1590000,
10553241,Bangkok,Thung Khru,Thung Khru,"Soi Pracha Uthit 76, Phutta Bucha Road",Townhouse,427.0,3.0,3.0,170,2.0,76.0,13.624214,100.502757,0,20.0,3.0,2,2020,,1990000,
10911767,Nonthaburi,Bang Kruai,Plai Bang,Soi Atchariya Phatthana 2,Townhouse,222.0,3.0,2.0,130,2.0,84.0,13.815216,100.394333,0,,5.0,1,0,,2590000,
11033581,Bangkok,Huai Khwang,Sam Sen Nok,558 Ratchadaphisek Road,Condo,881.0,1.0,1.0,46,18.0,,13.7987837664,100.5758564454,2,,9.0,8,2011,June,4450000,96739.13043478261
11029230,Bangkok,Phra Khanong,Bang Chak,2331 Sukhumvit Road,Condo,1332.0,2.0,2.0,52,8.0,,13.698429,100.604787,3,,8.0,6,2018,January,6800000,130769.23076923077
10126928,Bangkok,Bang Rak,Maha Phruettharam,660-662 Rama 4 Road,Condo,1598.0,1.0,1.0,25,18.0,,13.733236999999999,100.526269,2,,18.0,20,2016,September,4700000,188000.0
10938178,Samut Prakan,Mueang Samut Prakan,Thepharak,Sukhumvit 115 Road,Condo,998.0,1.0,1.0,34,26.0,,13.637929,100.592683,2,,5.0,6,2018,August,3500000,102941.17647058824
10818091,Bangkok,Don Mueang,Si Kan,Thoet Rachan Rd.,Detached House,427.0,3.0,3.0,142,2.0,156.0,13.9427652961,100.5920445401,0,,1.0,1,2015,,5890000,
7911883,Bangkok,Bangkok Yai,IDEO Thaphra Interchange,131 ถนนเพชรเกษม แขวงวัดท่าพระ เขตบางกอกใหญ่ กทม. Yai,Condo,844.0,1.0,1.0,34,18.0,,13.728824,100.475857,1,,4.0,5,2018,May,4680000,137647.0588235294
8976369,Bangkok,Ratchathewi,Makkasan,51 Rajaprarop Road,Condo,326.0,2.0,2.0,60,22.0,,13.761584,100.542548,3,,15.0,20,2010,February,6100000,101666.66666666667
10586502,Bangkok,Huai Khwang,Huai Khwang,Pracha Uthit Road,Condo,1907.0,2.0,1.0,45,2.0,,13.772067,100.579894,1,,20.0,20,2019,January,6000000,133333.33333333334
10926325,Bangkok,Khlong San,Bang Lamphu Lang,. Thonburi Road,Condo,377.0,1.0,1.0,35,26.0,,13.7206682113,100.4971448393,2,,16.0,11,2012,June,3600000,102857.14285714286
11033306,Bangkok,Lat Phrao,Chorakhe Bua,Areeya The Color 2 Soi 6,Townhouse,242.0,3.0,2.0,26,2.0,104.0,13.8459623315,100.6098564538,0,8.0,6.0,4,2010,,4100000,
10962311,Samut Prakan,Bang Phli,Racha Thewa,Soi Kingkaew 31,Townhouse,353.0,3.0,2.0,131,2.0,84.0,13.689859,100.72378,0,4.0,3.0,2,0,,2990000,
10949136,Bangkok,Watthana,Phra Khanong Nuea,Soi On Nut 1/1 Sukhumvit Road77,Condo,600.0,1.0,1.0,23,19.0,,13.7101567397,100.6022005975,1,,10.0,17,2020,October,3900000,169565.21739130435
11007471,Bangkok,Chatuchak,Chom Phon,Jom Phon,Townhouse,,2.0,2.0,144,2.0,144.0,13.8015875,100.5676406,2,,15.0,15,0,,6300000,
9199348,Bangkok,Ratchathewi,Thung Phaya Thai,505 Si Ayutthaya Road,Condo,317.0,1.0,1.0,31,18.0,,13.758933,100.532746,3,,9.0,20,2012,October,5300000,170967.74193548388
10644345,Bangkok,Chatuchak,Chan Kasem,Soi Phaholyothin 34,Condo,249.0,1.0,1.0,26,6.0,,13.837351,100.583793,1,20.0,4.0,3,2019,,2000000,76923.07692307692
10759981,Samut Prakan,Mueang Samut Prakan,Thepharak,Thepharak Road,Condo,1318.0,1.0,1.0,21,18.0,,13.637699,100.608816,0,1.0,10.0,11,2020,,1950000,92857.14285714286
10940797,Bangkok,Sai Mai,Khlong Thanon,พหลโยธิน 54/1 แยก 4-12,Townhouse,,2.0,2.0,120,2.0,80.0,13.9048375,100.6325469,0,,12.0,9,0,,1690000,
10963386,Bangkok,Huai Khwang,Huai Khwang,74 Pracharat Bamphen Road,Condo,341.0,1.0,1.0,36,18.0,,13.7785441129,100.5758325974,1,,20.0,20,2023,,6190000,171944.44444444444
10903046,Bangkok,Ratchathewi,Makkasan,1515 Phetchaburi Rd,Condo,636.0,1.0,1.0,27,29.0,,13.7503068516,100.5555151865,3,,5.0,19,2018,December,3450000,127777.77777777778
10947768,Nonthaburi,Mueang Nonthaburi,Bang Khen,82 Soi Pibulsongkram 22 Yeak 6,Townhouse,100.0,3.0,3.0,168,2.0,84.0,13.826902,100.508653,0,20.0,3.0,3,2017,,3500000,
10075700,Bangkok,Chatuchak,Sena Nikhom,Soi Phahonyothin 34 Yaek 1,Condo,1522.0,2.0,1.0,35,18.0,,13.83903,100.582438,1,20.0,7.0,5,2019,,2900000,82857.14285714286
11017869,Samut Prakan,Mueang Samut Prakan,Samrong Nuea,Sukhumvit 107 Road,Condo,269.0,2.0,2.0,59,17.0,,13.657437,100.604123,1,,7.0,10,2013,June,5190000,87966.10169491525
10848299,Bangkok,Phaya Thai,Sam Sen Nai,"Soi Phahonyothin 2, Phahonyothin Road",Condo,66.0,1.0,1.0,35,3.0,,13.7852625339,100.5434506647,2,,10.0,20,2017,January,5200000,148571.42857142858
9267679,Bangkok,Ratchathewi,Makkasan,Ratchaprarop,Condo,447.0,1.0,1.0,38,18.0,,13.754418,100.542475,3,,17.0,20,2012,March,4100000,107894.73684210527
10830986,Nonthaburi,Bang Bua Thong,Bang Rak Phatthana,Janthongeam Road,Condo,1870.0,1.0,1.0,23,6.0,,13.88957,100.405623,1,,9.0,13,2015,December,1100000,47826.086956521736
10981060,Bangkok,Chatuchak,Lat Yao,238 Ratchadaphisek Road,Condo,390.0,1.0,1.0,54,12.0,,13.828352,100.56588,2,20.0,20.0,9,2009,July,4690000,86851.85185185185
10613418,Bangkok,Watthana,Khlong Tan Nuea,Sukhumvit 31 Road,Condo,168.0,1.0,1.0,50,4.0,,13.7429671897,100.5709986442,0,20.0,11.0,18,2012,August,6100000,122000.0
10922515,Nonthaburi,Mueang Nonthaburi,Bang Khen,18 ซ.งามวงศ์วาน,Condo,196.0,1.0,1.0,31,2.0,,13.855643,100.538721,0,20.0,11.0,20,2015,November,1690000,54516.12903225807
10776981,Bangkok,Khlong Toei,Khlong Tan,"68 Sukhumvit 24 Alley, Khong Tan",Condo,940.0,1.0,1.0,29,10.0,,13.7253952835,100.5656595582,2,,20.0,20,2017,January,5690000,196206.89655172414
10682609,Nonthaburi,Mueang Nonthaburi,Bang Khen,ดวงมณี เลียบทางด่วนบางโคล่-แจ้งวัฒนะ,Condo,398.0,1.0,1.0,27,4.0,,13.845164,100.529273,0,5.0,,1,2013,July,1270000,47037.03703703704
11021815,Bangkok,Min Buri,Min Buri,นิมิตใหม่3/1,Townhouse,,3.0,2.0,80,2.0,76.0,13.8154818,100.7352666,0,20.0,6.0,10,0,,2350000,
10791869,Samut Prakan,Mueang Samut Prakan,Thepharak,เทพารักษ์,Detached House,,4.0,3.0,100,2.0,200.0,13.6103375,100.6484531,0,,6.0,9,0,,4100000,
11024388,Nonthaburi,Bang Bua Thong,Bang Khu Rat,Bang Khu Rat,Townhouse,,3.0,2.0,72,2.0,72.0,13.9165625,100.3523594,0,,3.0,4,0,,1690000,
9557338,Bangkok,Bang Na,Bang Na,Bangna-Trad Road,Condo,293.0,1.0,1.0,35,6.0,,13.6648887874,100.6371645509,0,11.0,13.0,17,2014,February,1900000,54285.71428571428
10911908,Bangkok,Bang Khen,Tha Raeng,Tha Rang,Detached House,,4.0,3.0,200,1.0,240.0,13.8659375,100.6499375,0,,4.0,3,0,,8000000,
11043500,Nonthaburi,Bang Bua Thong,Bang Bua Thong,Bang Bua Thong,Townhouse,,2.0,2.0,64,2.0,64.0,13.9354695,100.383479,0,5.0,2.0,3,0,,1550000,
10674552,Bangkok,Khlong Sam Wa,Bang Chan,พระยาสุเรนทร์,Detached House,,3.0,2.0,250,2.0,332.0,13.8402137,100.7323332,0,,2.0,3,0,,8000000,
10991879,Bangkok,Khlong Toei,Khlong Tan,"68 Sukhumvit 24 Alley, Khong Tan",Condo,940.0,1.0,1.0,29,5.0,,13.7253952835,100.5656595582,2,,20.0,20,2017,January,4600000,158620.6896551724
10938891,Bangkok,Pathum Wan,Lumphini,Ploenchit Road,Condo,597.0,1.0,1.0,39,15.0,,13.7479962605,100.5457873142,3,,16.0,20,2009,June,6800000,174358.97435897434
11010599,Bangkok,Watthana,Khlong Tan Nuea,"11 Soi Ekamai 12, Sukhumvit 63 Road",Condo,376.0,1.0,1.0,29,18.0,,13.7305103562,100.5878115417,0,20.0,17.0,20,2013,February,3500000,120689.6551724138
10587776,Bangkok,Pathum Wan,Lumphini,1 Wireless Road,Condo,1344.0,1.0,1.0,35,25.0,,13.7478198122,100.5490615522,2,,11.0,20,2020,September,7202870,205796.2857142857
10107675,Nonthaburi,Mueang Nonthaburi,Bang Kraso,ซอยนนทบุรี 15 Sanam Bin Nam Road,Condo,2351.0,1.0,1.0,31,32.0,,13.87393,100.478563,1,,4.0,2,2019,June,2690000,86774.19354838709
10998731,Samut Prakan,Bang Phli,Bang Kaeo,ศรีด่าน22,Townhouse,,4.0,4.0,180,3.0,88.0,13.6450625,100.6506875,0,,4.0,1,0,,5000000,
10946392,Samut Prakan,Bang Phli,Bang Pla,เทพารักษ์,Detached House,,4.0,4.0,277,2.0,416.0,13.5971375,100.7336406,0,,3.0,3,0,,5300000,
10609935,Bangkok,Watthana,Phra Khanong Nuea,70-5 Sukhumvit 63 Road,Condo,333.0,1.0,1.0,29,16.0,,13.724593,100.584843,2,,13.0,20,2020,,4890000,168620.6896551724
10848343,Bangkok,Watthana,Phra Khanong Nuea,"9 Soi Sukhumvit 65, Sukhumvit Road",Condo,124.0,1.0,1.0,60,6.0,,13.720662,100.588166,2,,20.0,20,2010,June,6450000,107500.0
9992837,Nonthaburi,Mueang Nonthaburi,Bang Kraso,185 Rattanathibet Road,Condo,1428.0,1.0,1.0,24,21.0,,13.860527,100.508473,2,,9.0,8,2016,June,1650000,68750.0
10788582,Nonthaburi,Bang Bua Thong,Bang Rak Phatthana,Janthongeam Road,Condo,1870.0,2.0,2.0,46,8.0,,13.88957,100.405623,1,,9.0,13,2015,December,2000000,43478.260869565216
11031757,Bangkok,Watthana,Khlong Tan Nuea,Soi Sukhumvit 39,Condo,194.0,3.0,2.0,130,8.0,,13.7405968563,100.5708297233,0,20.0,13.0,20,2012,May,9500000,73076.92307692308
10510778,Bangkok,Khlong Toei,Phra Khanong,Sukhumvit Road,Condo,118.0,1.0,1.0,52,5.0,,13.704428,100.599312,1,,5.0,8,2017,May,5000000,96153.84615384616
8497981,Samut Prakan,Phra Samut Jadee,Ban Khlong Suan,ประชาอุทิศ,Detached House,,4.0,3.0,250,2.0,424.0,13.5701579,100.4529757,0,6.0,,1,0,,6800000,
10826737,Bangkok,Khlong Toei,Khlong Tan,68 Sukhumvit 24 Alley,Condo,940.0,1.0,1.0,33,24.0,,13.7253952835,100.5656595582,2,,20.0,20,2017,January,6280000,190303.0303030303
11047113,Nonthaburi,Mueang Nonthaburi,Bang Si Mueang,Bang Si Mueang,Detached House,,4.0,3.0,140,2.0,152.0,13.8309625,100.4802031,0,8.0,9.0,7,0,,3600000,
10968593,Bangkok,Khlong Toei,Khlong Tan,"772 Sukhumvit Road, Khong Tan",Condo,656.0,1.0,1.0,55,3.0,,13.7242946414,100.5772022859,1,20.0,16.0,20,2013,June,7390000,134363.63636363635
10936627,Bangkok,Ratchathewi,Makkasan,Ratchaprarop,Condo,447.0,2.0,1.0,57,17.0,,13.754418,100.542475,3,,17.0,20,2012,March,6900000,121052.63157894737
11032978,Samut Prakan,Mueang Samut Prakan,Samrong Nuea,Sukhumvit 115 Sukhumvit 115,Condo,310.0,1.0,1.0,28,6.0,,13.6365085015,100.5945713384,1,,5.0,4,2016,March,1860000,66428.57142857143
11028167,Bangkok,Yan Nawa,Chong Nonsi,507/286  Rama 3 Road,Condo,620.0,1.0,1.0,29,26.0,,13.700313,100.538,2,20.0,20.0,20,2002,June,2990000,103103.44827586207
10904672,Bangkok,Bangkok Noi,Ban Chang Lo,Ban Chang Lo Noi,Detached House,,6.0,6.0,120,2.0,88.0,13.7548125,100.4710625,2,,15.0,14,0,,6500000,
10524208,Bangkok,Khlong Toei,Phra Khanong,"Soi Roem Charoen 1, Sukhumvit 50 Road",Condo,415.0,1.0,1.0,25,4.0,,13.705176999999999,100.592245,1,,4.0,6,2019,,2650000,106000.0
10933390,Bangkok,Huai Khwang,Huai Khwang,Sutthisarn Winitcha Road,Condo,524.0,1.0,1.0,30,6.0,,13.786939,100.578541,1,,14.0,15,2013,December,1650000,55000.0
10994347,Nonthaburi,Pak Kret,Pak Kret,Pak Kret,Townhouse,,3.0,2.0,150,2.0,76.0,13.9079375,100.5205625,0,12.0,8.0,8,0,,2990000,
10882289,Nonthaburi,Bang Bua Thong,Bang Rak Yai,รัตนาธิเบศร์,Detached House,,3.0,3.0,220,2.0,368.0,13.8768625,100.4406719,2,,2.0,4,0,,7200000,
11022057,Samut Prakan,Phra Samut Jadee,Nai Khlong Bang Pla Kot,Nai Khlong Bang Pla Kot,Townhouse,,4.0,2.0,100,2.0,80.0,13.5827875,100.5528594,0,,6.0,3,0,,2290000,
10995604,Samut Prakan,Mueang Samut Prakan,Pak Nam,92 Sukhumvit Road,Condo,1570.0,1.0,1.0,29,7.0,,13.620116105,100.5893897284,1,18.0,8.0,3,2017,December,1850000,63793.10344827586
10611770,Bangkok,Din Daeng,Din Daeng,"Soi Inthamara 47, Ratchadaphisek Road",Condo,441.0,1.0,1.0,46,6.0,,13.7841189237,100.5713730635,2,,16.0,18,2011,June,4500000,97826.08695652174
10963699,Samut Prakan,Bang Phli,Bang Phli Yai,Bangna-Trad Road Yai,Detached House,985.0,4.0,2.0,130,2.0,200.0,13.6139257419,100.6941384647,0,,6.0,2,0,,5690000,
10903047,Bangkok,Huai Khwang,Sam Sen Nok,ลาดพร้าว,Townhouse,,3.0,3.0,200,1.0,100.0,13.7959375,100.5790625,2,,8.0,8,0,,8900000,
10852260,Bangkok,Suan Luang,Suan Luang,Suan Luang,Townhouse,,4.0,3.0,160,2.0,,13.717925900000001,100.6534443,0,15.0,6.0,6,0,,4200000,
10982497,Bangkok,Bang Na,Bang Na,195 Sanphawut Road,Condo,1569.0,1.0,1.0,26,12.0,,13.673215,100.604476,2,,6.0,4,2017,January,2550000,98076.92307692308
10558244,Bangkok,Wang Thonglang,Wang Thonglang,ลาดพร้าว 87 แยก 21,Townhouse,,6.0,4.0,300,1.0,88.0,13.7989375,100.6191875,0,14.0,15.0,20,0,,3990000,
10784461,Bangkok,Huai Khwang,Huai Khwang,ถนน ประชาอุทิศ,Condo,875.0,1.0,1.0,30,5.0,,13.775817,100.575734,1,,20.0,20,2014,February,2100000,70000.0
10972760,Bangkok,Chatuchak,Chom Phon,Phaholyothin Road,Condo,841.0,1.0,1.0,45,18.0,,13.8062021626,100.556204688,3,,4.0,20,2018,June,7900000,175555.55555555556
11019762,Bangkok,Khlong Toei,Khlong Toei,71 ซอยสุขุมวิท 4 แขวงคลองเตย เขตคลองเตย กทม,Condo,90.0,1.0,1.0,68,14.0,,13.737516,100.55321,3,,12.0,20,2007,May,4500000,66176.4705882353
11031783,Bangkok,Phra Khanong,Bang Chak,2331 Sukhumvit Road,Condo,1332.0,2.0,2.0,53,20.0,,13.698429,100.604787,3,,8.0,6,2018,January,8500000,160377.35849056602
10806430,Bangkok,Chatuchak,Chom Phon,992 Ladprao Road,Condo,1615.0,1.0,1.0,36,22.0,,13.8169662,100.5632457,3,,11.0,20,2020,May,5150000,143055.55555555556
10645795,Bangkok,Khlong Sam Wa,Bang Chan,Bang Chun,Townhouse,,3.0,2.0,105,2.0,68.0,13.8527280191,100.7162959424,0,9.0,5.0,8,0,,2550000,
10987404,Nonthaburi,Mueang Nonthaburi,Bang Phai,Yothathikan Road,Townhouse,260.0,3.0,2.0,120,2.0,72.0,13.8220003908,100.4977815577,0,19.0,1.0,2,0,,2250000,
10900105,Bangkok,Phaya Thai,Sam Sen Nai,27 Phahonyothin Road,Condo,516.0,1.0,1.0,29,7.0,,13.7780093698,100.5423919534,2,,9.0,14,2016,February,4200000,144827.58620689655
10284622,Nonthaburi,Bang Bua Thong,Bang Rak Phatthana,Janthongeam Road,Condo,1870.0,2.0,2.0,45,2.0,,13.88957,100.405623,1,,9.0,13,2015,December,1850000,41111.11111111111
10938426,Samut Prakan,Bang Phli,Bang Phli Yai,Bangna-Trad Road Yai,Condo,945.0,1.0,1.0,25,12.0,,13.640131,100.680643,0,5.0,5.0,10,2015,January,1300000,52000.0
11021201,Nonthaburi,Bang Bua Thong,Bang Rak Phatthana,Soi Thetsaban 2,Townhouse,278.0,3.0,3.0,165,2.0,64.0,13.8889426216,100.4364760086,0,,3.0,3,2019,,2750000,
10864045,Bangkok,Khlong Sam Wa,Bang Chan,Bang Chun,Townhouse,,3.0,2.0,87,2.0,88.0,13.857312499999999,100.7256719,0,7.0,5.0,5,0,,2350000,
10789555,Bangkok,Chatuchak,Chom Phon,432 Ladprao Road,Condo,514.0,1.0,1.0,33,23.0,,13.806067,100.572731,2,,8.0,9,2017,December,3980000,120606.06060606061
10744742,Samut Prakan,Bang Phli,Bang Phli Yai,Bangna-Trad Road Yai,Condo,945.0,1.0,1.0,25,9.0,,13.640131,100.680643,0,5.0,5.0,10,2015,January,1300000,52000.0
10988638,Bangkok,Khlong Toei,Phra Khanong,902 Sukhumvit Road,Condo,460.0,1.0,1.0,52,18.0,,13.7230210183,100.5799390086,2,,14.0,20,2009,December,6700000,128846.15384615384
11008720,Nonthaburi,Bang Kruai,Bang Si Thong,Bang Si Thong,Townhouse,,3.0,3.0,160,2.0,112.0,13.8198922,100.4761897,0,8.0,7.0,5,0,,4300000,
10777190,Bangkok,Bang Kapi,Khlong Chan,Khlong Chan,Townhouse,,4.0,3.0,195,2.0,180.0,13.8054375,100.6233906,0,10.0,8.0,20,0,,7700000,
10125619,Nonthaburi,Sai Noi,Sai Noi,Kanchanaphisek-Ratchapruek Road,Townhouse,225.0,3.0,2.0,77,2.0,76.0,13.9862566641,100.3276616697,0,6.0,5.0,2,0,,1890000,
10887628,Bangkok,Chatuchak,Chom Phon,"22 Soi Phaholyothin 18/1, Phaholyothin Road",Condo,900.0,1.0,1.0,32,15.0,,13.7975987869,100.5560174649,3,,17.0,20,2013,June,2200000,68750.0
10811049,Samut Prakan,Mueang Samut Prakan,Samrong Nuea,ถนนเทพารักษ์ ตำบลสำโรงเหนือ อำเภอเมือง สมุทรปราการ,Condo,2041.0,1.0,1.0,27,7.0,,13.626218,100.629021,0,16.0,10.0,14,2017,March,1350000,50000.0
10918643,Nonthaburi,Sai Noi,Sai Noi,Ban Kluay-Sai Noi Road,Detached House,421.0,3.0,2.0,100,2.0,68.0,13.9712424469,100.3194236704,0,,1.0,2,0,,1850000,
8303513,Bangkok,Khlong Toei,Phra Khanong,"Soi Loemcharen, Sukhumvit 50 Road",Condo,434.0,1.0,1.0,29,3.0,,13.7044803015,100.5925524839,1,,5.0,6,2018,December,2900000,100000.0
10889022,Nonthaburi,Bang Bua Thong,Lam Pho,Lam Pho,Townhouse,,4.0,2.0,78,2.0,80.0,13.9744875,100.4222344,0,,3.0,4,0,,2300000,
9433519,Bangkok,Ratchathewi,Thanon Phaya Thai,Sri Ayutthaya Road,Condo,261.0,1.0,1.0,47,18.0,,13.7573713426,100.5356070913,3,,15.0,20,2014,March,7000000,148936.17021276595
10599979,Bangkok,Sai Mai,Sai Mai,ถนนสายไหม,Townhouse,,3.0,2.0,100,2.0,108.0,13.9131375,100.6591406,0,6.0,8.0,1,0,,2650000,
11029677,Bangkok,Yan Nawa,Chong Nonsi,200 Naradhiwas Rajanagarindra Rd,Condo,233.0,1.0,1.0,30,9.0,,13.6958377287,100.5451760344,1,20.0,12.0,20,2007,January,1950000,65000.0
8815500,Bangkok,Khlong Toei,Phra Khanong,Sukhumvit Road,Condo,486.0,2.0,1.0,52,7.0,,13.715134387500001,100.5908126786,2,,19.0,20,2013,January,8500000,163461.53846153847
10974895,Bangkok,Khlong Sam Wa,Sam Wa Tawan Tok,Soi Phraya Suren 40,Townhouse,877.0,2.0,2.0,72,2.0,72.0,13.8652891681,100.6971751962,0,13.0,5.0,5,0,,2500000,
11040349,Nonthaburi,Pak Kret,Ban Mai,Soi Tiwanon-Pak Kret 34,Townhouse,113.0,3.0,2.0,110,2.0,72.0,13.9204815863,100.5306162712,0,7.0,9.0,3,2015,,2300000,
10960592,Bangkok,Nong Chok,Nong Chok,Nong Chok,Detached House,,3.0,2.0,200,2.0,200.0,13.8563339,100.8630399,0,19.0,10.0,13,0,,2850000,
7828506,Bangkok,Chatuchak,Chom Phon,Ladprao Road,Condo,497.0,1.0,1.0,31,18.0,,13.805223,100.574215,2,,9.0,9,2017,February,5000000,161290.32258064515
8029908,Samut Prakan,Bang Phli,Bang Kaeo,บัวนครินทร์,Townhouse,,3.0,2.0,100,2.0,68.0,13.6345489119,100.6659250831,0,1.0,2.0,1,0,,2610000,
10905924,Bangkok,Bang Sue,Bang Sue,1 ถนนประชาราษฎร์ สาย 1 แขวงบางซื่อ เขตบางซื่อ กทม.,Condo,386.0,1.0,1.0,32,13.0,,13.812685,100.521246,1,,6.0,5,2020,August,2990000,93437.5
10991698,Nonthaburi,Bang Yai,Bang Mae Nang,ถนนแก้วอินทร์,Townhouse,,3.0,2.0,72,1.0,72.0,13.8779375,100.3818125,0,,5.0,3,0,,1890000,
10609001,Bangkok,Watthana,Khlong Tan Nuea,259 ถนนสุขุมวิท 63 แขวงคลองตันเหนือ เขตวัฒนา กทม.,Condo,537.0,1.0,1.0,30,9.0,,13.7336097538,100.5871954405,0,20.0,20.0,20,2020,December,4900000,163333.33333333334
10958752,Bangkok,Khlong Sam Wa,Sam Wa Tawan Tok,หทัยราษฎร์39,Townhouse,,2.0,2.0,55,2.0,,13.8886375,100.7202031,0,,6.0,8,0,,1590000,
10223007,Bangkok,Phasi Charoen,Bang Wa,27 Phet Kasem 27 Road,Condo,638.0,1.0,1.0,24,12.0,,13.7182239,100.453682,3,,1.0,6,2017,January,2190000,91250.0
10601866,Bangkok,Watthana,Phra Khanong Nuea,1599 Sukhumvit Road,Condo,498.0,1.0,1.0,52,37.0,,13.71425,100.593478,1,,17.0,20,2012,June,7690000,147884.61538461538
10715090,Bangkok,Rat Burana,Bang Pa Kok,653 Suksawat Road,Condo,892.0,2.0,2.0,60,16.0,,13.681739056,100.4935496012,0,20.0,16.0,11,2014,March,3890000,64833.333333333336
10752310,Nonthaburi,Bang Yai,Bang Mae Nang,"Soi Wat Phra Non, Kanchanapisek Road",Detached House,467.0,3.0,3.0,200,2.0,200.0,13.852282,100.39742,0,,,7,2018,,4550000,
10901651,Bangkok,Lat Phrao,Lat Phrao,17/119 Lad Prao Wanghin Road,Condo,198.0,2.0,1.0,53,2.0,,13.828428,100.591909,0,12.0,9.0,7,2017,June,3800000,71698.11320754717
10871687,Bangkok,Bang Sue,Bang Sue,416 Pracharat Road 2,Condo,279.0,1.0,1.0,27,7.0,,13.806221,100.529815,2,,6.0,8,2015,February,3000000,111111.11111111111
10941719,Samut Prakan,Phra Samut Jadee,Nai Khlong Bang Pla Kot,Soi Pracha Uthit 90,Detached House,289.0,3.0,3.0,160,2.0,200.0,13.5878871426,100.5088087436,0,8.0,3.0,2,2019,,5290000,
10718706,Bangkok,Ratchathewi,Makkasan,1515 Phetchaburi Rd,Condo,636.0,1.0,1.0,28,32.0,,13.7503068516,100.5555151865,3,,5.0,19,2018,December,3700000,132142.85714285713
10933753,Bangkok,Watthana,Khlong Tan Nuea,"889 Soi Sukhumvit 55, Thonglor Road",Condo,447.0,2.0,1.0,43,17.0,,13.7372155506,100.5833727877,0,20.0,17.0,20,2010,January,8490000,197441.86046511628
11003745,Nonthaburi,Mueang Nonthaburi,Bang Kraso,185 Rattanathibet Road,Condo,1428.0,1.0,1.0,25,6.0,,13.860527,100.508473,2,,9.0,8,2016,June,1600000,64000.0
10992333,Nonthaburi,Bang Bua Thong,Bang Bua Thong,วัดลาดปลาดุก,Detached House,,3.0,2.0,240,2.0,248.0,13.9354695,100.383479,0,5.0,2.0,3,0,,4290000,
11007177,Bangkok,Chom Thong,Bang Kho,55 Ratchaphruek Road,Condo,546.0,2.0,1.0,46,22.0,,13.713431,100.463979,1,,2.0,1,2015,April,2900000,63043.47826086957
10912601,Bangkok,Bang Kapi,Khlong Chan,5 Lat Phrao Rd,Condo,751.0,1.0,1.0,31,7.0,,13.7706364,100.6301829,0,19.0,15.0,6,2010,January,1300000,41935.48387096774
10990799,Samut Prakan,Mueang Samut Prakan,Bang Pu Mai,Bang Pu Mai,Townhouse,,2.0,3.0,100,2.0,72.0,13.5863125,100.6206406,0,7.0,2.0,2,0,,3500000,
10579506,Bangkok,Don Mueang,Si Kan,Si Khan,Townhouse,,2.0,3.0,186,2.0,88.0,13.9249375,100.5681875,0,6.0,5.0,3,0,,4390000,
11029487,Nonthaburi,Pak Kret,Pak Kret,"Soi Tiwanon - Pakkret 17, Tiwanon Road",Condo,851.0,1.0,1.0,28,6.0,,13.914101,100.506769,0,20.0,2.0,9,2014,July,1190000,42500.0
10982488,Bangkok,Bang Na,Bang Na,195 Sanphawut Road,Condo,1569.0,1.0,1.0,32,14.0,,13.673215,100.604476,2,,6.0,4,2017,January,3300000,103125.0
10999683,Nonthaburi,Bang Kruai,Wat Chalo,ถนนบางกรวย – ไทรน้อย,Townhouse,,4.0,2.0,140,2.0,124.0,13.8091625,100.4847031,0,,6.0,5,0,,3500000,
9835069,Nonthaburi,Bang Bua Thong,Bang Bua Thong,Bang Bua Thong,Townhouse,,3.0,2.0,90,2.0,,13.9286875,100.4215625,0,9.0,8.0,9,0,,2370000,
11028225,Bangkok,Chatuchak,Lat Yao,Ratchadapisek Road,Townhouse,137.0,4.0,3.0,259,2.0,96.0,13.830632,100.550475,1,20.0,5.0,9,0,,6150000,
10893289,Bangkok,Lat Krabang,Khlong Song Ton Nun,Patthana Chonabot 3 Road,Detached House,210.0,3.0,2.0,135,2.0,224.0,13.7457756262,100.7232778786,0,9.0,,2,2011,,7990000,
11038696,Nonthaburi,Mueang Nonthaburi,Bang Khen,Bang Khen,Townhouse,,3.0,4.0,195,2.0,112.0,13.8354375,100.5200625,2,,,3,0,,7750000,
10974713,Bangkok,Ratchathewi,Thanon Phetchaburi,111 ถนนเพชรบุรี,Condo,880.0,1.0,1.0,31,18.0,,13.7534341124,100.5306261369,3,,15.0,20,2023,,6430000,207419.35483870967
10958898,Bangkok,Chatuchak,Supalai Park Ratchayothin,Ratchadaphisek Road,Condo,804.0,2.0,1.0,91,4.0,,13.830547,100.56159,2,20.0,20.0,8,2013,June,6500000,71428.57142857143
11018991,Nonthaburi,Mueang Nonthaburi,Bang Khen,Bangkok - Nonthaburi Road,Condo,563.0,1.0,1.0,35,22.0,,13.839327656,100.5157596385,1,,3.0,4,2017,May,3200000,91428.57142857143
10728786,Bangkok,Bang Khen,Anusawari,Chaengwattana Road,Condo,442.0,1.0,1.0,30,14.0,,13.876886,100.595017,2,20.0,13.0,8,2011,,1365000,45500.0
9992609,Nonthaburi,Pak Kret,Pak Kret,"Soi Tiwanon - Pakkret 17, Tiwanon Road",Condo,851.0,1.0,1.0,28,6.0,,13.914101,100.506769,0,20.0,2.0,9,2014,July,1050000,37500.0
10626464,Bangkok,Phaya Thai,Sam Sen Nai,"18 Soi Phaholyothin 7, Phaholyothin Road",Condo,191.0,1.0,1.0,46,9.0,,13.781419,100.544494,3,,9.0,16,2012,June,8500000,184782.60869565216
10539481,Bangkok,Khlong Toei,Phra Khanong,Sukhumvit Road,Condo,486.0,1.0,1.0,45,22.0,,13.715134387500001,100.5908126786,2,,19.0,20,2013,January,5990000,133111.11111111112
10847921,Bangkok,Pathum Wan,Wang Mai,Rama 4 Road,Condo,516.0,1.0,1.0,34,26.0,,13.7349650921,100.5283864785,2,,16.0,20,2019,September,5150000,151470.58823529413
10936312,Bangkok,Bang Rak,Silom,98 Sathorn Nua Road,Condo,562.0,1.0,1.0,56,18.0,,13.7230326105,100.5255950797,3,,20.0,20,2013,September,8700000,155357.14285714287
10556958,Bangkok,Suan Luang,Suan Luang,พัฒนการ,Townhouse,,3.0,2.0,125,2.0,76.0,13.7210125,100.6298906,0,4.0,1.0,2,0,,3900000,
11027051,Bangkok,Lat Krabang,Khlong Sam Prawet,Rom Klao Road,Condo,1019.0,1.0,1.0,25,1.0,,13.7307581,100.7465435,1,,4.0,2,2012,September,1100000,44000.0
10642319,Bangkok,Bang Na,Bang Na,สุขุมวิท,Townhouse,,4.0,1.0,184,2.0,92.0,13.6741713,100.608395,2,,9.0,7,0,,4500000,
10978997,Bangkok,Huai Khwang,Bang Kapi,1811 Phetchaburi Rd,Condo,295.0,1.0,1.0,35,18.0,,13.7486864679,100.5678411105,3,,12.0,20,2012,January,3400000,97142.85714285714
10876231,Bangkok,Watthana,Khlong Tan Nuea,Soi Sukhumvit 63,Condo,29.0,2.0,2.0,75,24.0,,13.739541,100.588697,0,20.0,16.0,16,2013,January,8980000,119733.33333333333
10892089,Bangkok,Din Daeng,Din Daeng,Soi Ratchadaphisek 3,Condo,1025.0,2.0,1.0,50,3.0,,13.7642276434,100.5609795351,1,,17.0,20,2020,August,4790000,95800.0
10642211,Nonthaburi,Mueang Nonthaburi,Bang Kraso,Rattanathibet Road,Condo,2824.0,1.0,1.0,37,14.0,,13.8636530348,100.5028675423,2,,16.0,11,2016,December,2000000,54054.05405405405
10952057,Nonthaburi,Bang Yai,Bang Mae Nang,66/117 Pruksa 76 Soi 9,Townhouse,455.0,3.0,2.0,93,2.0,100.0,13.865967,100.395253,0,,5.0,8,2014,,2350000,
11042220,Nonthaburi,Mueang Nonthaburi,Sai Ma,Rattanathibet Road,Condo,638.0,1.0,1.0,31,8.0,,13.870823,100.467008,1,,4.0,3,2018,January,1650000,53225.8064516129
10978812,Samut Prakan,Mueang Samut Prakan,Bang Duan,Kanchanaphisek Ring Kanchanaphisek Ring,Condo,363.0,1.0,1.0,37,3.0,,13.629327,100.587091,1,18.0,1.0,2,2014,February,1700000,45945.94594594595
11016842,Samut Prakan,Bang Phli,Bang Kaeo,Bangna-Trad Road Km.8,Detached House,,4.0,3.0,180,2.0,160.0,13.638379,100.682362,0,1.0,,8,0,,6900000,
11024809,Nonthaburi,Mueang Nonthaburi,Talat Khwan,Tiwanon Road,Condo,520.0,1.0,1.0,54,8.0,,13.842622,100.510285,2,,3.0,3,2011,June,1990000,36851.851851851854
10540718,Bangkok,Din Daeng,Din Daeng,Soi Ratchadaphisek 3 Ratchadaphisek Road,Condo,321.0,1.0,1.0,31,18.0,,13.76284,100.564818,2,,18.0,20,2017,January,3590000,115806.45161290323
10870671,Bangkok,Bang Kho Laem,Bang Khlo,Rama 3 Road,Condo,484.0,2.0,1.0,53,18.0,,13.689928,100.50389,2,20.0,13.0,10,2022,,6690000,126226.41509433962
9245359,Bangkok,Ratchathewi,Thung Phaya Thai,138 Phayathai Road,Condo,476.0,1.0,1.0,45,18.0,,13.755722,100.532865,3,,11.0,20,2010,June,8300000,184444.44444444444
11030620,Samut Prakan,Bang Phli,Bang Phli Yai,Bang Phli Yai,Townhouse,,3.0,2.0,100,2.0,84.0,13.696462499999999,100.7125156,0,,,4,0,,2790000,
11033815,Bangkok,Khlong Toei,Khlong Tan,"3399 Rama 4 Road, Khong Tan",Condo,1178.0,1.0,1.0,34,11.0,,13.7157845199,100.5751531105,1,20.0,15.0,20,2019,October,4790000,140882.35294117648
10982952,Bangkok,Phra Khanong,Bang Chak,Soi Sukhumvit 64 Sukhumvit Road,Condo,105.0,1.0,1.0,42,18.0,,13.686233,100.6048,2,,6.0,13,2013,July,5150000,122619.04761904762
10948177,Bangkok,Khlong Toei,Phra Khanong,4866-4878 Sukhumvit Road,Condo,383.0,1.0,1.0,44,10.0,,13.712982,100.592335,1,,20.0,17,2015,February,4400000,100000.0
10953578,Bangkok,Khlong Sam Wa,Sam Wa Tawan Tok,พระยาสุเรนทร์,Townhouse,,3.0,3.0,120,2.0,80.0,13.8929221,100.7041509,0,,1.0,3,0,,2490000,
10977573,Bangkok,Watthana,Khlong Tan Nuea,"889 Soi Sukhumvit 55, Thonglor Road",Condo,447.0,1.0,1.0,43,18.0,,13.7372155506,100.5833727877,0,20.0,17.0,20,2010,January,7500000,174418.60465116278
11031333,Bangkok,Chatuchak,Chom Phon,Phaholyothin Road,Condo,841.0,1.0,1.0,27,30.0,,13.8062021626,100.556204688,3,,4.0,20,2018,June,5800000,214814.8148148148
10724114,Nonthaburi,Mueang Nonthaburi,Bang Kraso,557 Nonthaburi Road,Condo,1796.0,1.0,1.0,25,18.0,,13.8815191177,100.4857063353,0,14.0,2.0,4,2016,January,1450000,58000.0
10852481,Nonthaburi,Bang Bua Thong,Lam Pho,Lam Pho Road,Townhouse,393.0,4.0,2.0,100,2.0,104.0,13.9726545455,100.4208778068,0,,2.0,2,2016,,2000000,
8797930,Bangkok,Rat Burana,Bang Pa Kok,Bangpakok,Townhouse,,3.0,3.0,85,2.0,,13.6762498,100.4930564,0,15.0,20.0,7,0,,3950000,
10846657,Bangkok,Bang Khun Thian,Tha Kham,Kanchanaphisek Road,Detached House,,4.0,3.0,173,2.0,232.0,13.626052,100.445898,0,6.0,2.0,2,2022,,5100000,
10719261,Samut Prakan,Mueang Samut Prakan,Thepharak,Thepharak Road,Condo,1318.0,2.0,2.0,60,5.0,,13.637699,100.608816,0,1.0,10.0,11,2020,,2700000,45000.0
10745530,Nonthaburi,Mueang Nonthaburi,Talat Khwan,Tiwanon Road,Condo,520.0,1.0,1.0,51,7.0,,13.842622,100.510285,2,,3.0,3,2011,June,2200000,43137.25490196078
10611545,Bangkok,Khlong Toei,Khlong Tan,"Soi Methi Niwet, Khong Tan",Condo,82.0,1.0,1.0,46,4.0,,13.7292521989,100.5661195055,1,,18.0,20,2012,December,8800000,191304.34782608695
10936868,Bangkok,Khlong Toei,Phra Khanong,Soi Sukhumvit 48,Condo,612.0,1.0,1.0,40,9.0,,13.711724,100.594785,2,,20.0,17,2018,December,5200000,130000.0
11008376,Bangkok,Chatuchak,Sena Nikhom,Phaholyothin Road,Condo,229.0,2.0,2.0,46,8.0,,13.8457228689,100.5805871661,2,20.0,7.0,4,2017,,4500000,97826.08695652174
10687914,Nonthaburi,Mueang Nonthaburi,Bang Kraso,Rattanathibet Road,Condo,401.0,1.0,1.0,25,17.0,,13.8633245511,100.4975824605,2,,10.0,17,2017,October,2300000,92000.0
10868846,Samut Prakan,Bang Phli,Bang Phli Yai,ตำหรุ บางพลี Yai,Detached House,,3.0,2.0,140,2.0,140.0,13.5851875,100.6930625,0,,3.0,4,0,,4700000,
10930766,Bangkok,Wang Thonglang,Wang Thonglang,Chokchai 4,Condo,374.0,1.0,1.0,29,5.0,,13.798052,100.596129,0,20.0,12.0,13,2014,July,1490000,51379.31034482759
10558829,Bangkok,Lat Phrao,Lat Phrao,17/119 Lad Prao Wanghin Road,Condo,198.0,1.0,1.0,34,2.0,,13.828428,100.591909,0,12.0,9.0,7,2017,June,2800000,82352.94117647059
11031532,Bangkok,Din Daeng,Din Daeng,Din Daeng,Townhouse,,3.0,3.0,90,2.0,84.0,13.7604677,100.5548638,0,20.0,8.0,8,0,,7000000,
10899899,Samut Prakan,Bang Phli,Racha Thewa,Lat Krabang Road,Detached House,1337.0,3.0,2.0,125,2.0,208.0,13.714717,100.7251718,0,7.0,12.0,10,2018,December,4800000,
10632183,Samut Prakan,Mueang Samut Prakan,Pak Nam,111 Sukhumvit Road,Condo,468.0,1.0,1.0,26,21.0,,13.6050643151,100.5964284491,2,20.0,6.0,3,2016,December,2560000,98461.53846153847
9541374,Bangkok,Phaya Thai,Sam Sen Nai,1377 Phaholyothin Road,Condo,809.0,1.0,1.0,35,18.0,,13.788908,100.545272,2,,14.0,20,2012,September,3680000,105142.85714285714
10979553,Bangkok,Bang Sue,Bang Sue,318 Pracharat Road 2,Condo,773.0,1.0,1.0,33,10.0,,13.806278,100.526466,2,,7.0,6,2017,December,2970000,90000.0
10683141,Bangkok,Huai Khwang,Sam Sen Nok,รัชดาภิเษก รัชดาภิเษก 18,Condo,188.0,1.0,1.0,28,6.0,,13.784527,100.582918,0,,15.0,9,2012,October,1800000,64285.71428571428
11043099,Nonthaburi,Mueang Nonthaburi,Bang Kraso,Rattanathibet,Condo,1054.0,2.0,2.0,60,21.0,,13.862783,100.4990508,2,,12.0,17,2018,January,3200000,53333.333333333336
11031061,Samut Prakan,Mueang Samut Prakan,Thepharak,Thepharak Road,Condo,1318.0,1.0,1.0,32,25.0,,13.637699,100.608816,0,1.0,8.0,11,2020,,2670000,83437.5
10923782,Bangkok,Watthana,Khlong Toei Nuea,6 Soi Sukhumvit 23,Condo,443.0,1.0,1.0,30,2.0,,13.7366862659,100.5628969914,3,,14.0,20,2016,December,6000000,200000.0
10081037,Nonthaburi,Mueang Nonthaburi,Bang Kraso,557 Nonthaburi Road,Condo,1796.0,1.0,1.0,26,19.0,,13.8815191177,100.4857063353,0,14.0,2.0,4,2016,January,2080000,80000.0
10960531,Bangkok,Chatuchak,Chatuchak,22 Phahon Yothin,Condo,333.0,1.0,1.0,28,18.0,,13.8252133569,100.5665811263,2,20.0,20.0,8,2020,May,4900000,175000.0
10965395,Bangkok,Bangkok Noi,Bang Khun Si,ถนนพระเทพฯ พรานนก-พุทธมลฑลสาย 4 แขวงบางขุนศรี บางกอกน้อย กทม. Noi,Condo,366.0,1.0,1.0,47,23.0,,13.754026,100.466757,1,,10.0,9,2019,September,3800000,80851.06382978724
10847254,Bangkok,Watthana,Phra Khanong Nuea,396 Soi Sukhumvit 65 Sukhumvit Road,Condo,228.0,1.0,1.0,47,4.0,,13.721775,100.588772,2,,20.0,20,2007,December,3600000,76595.74468085106
10978634,Bangkok,Nong Chok,Khu Fang Nuea,Soi Mitmaitri 12/1,Detached House,136.0,3.0,2.0,140,2.0,144.0,13.8599971682,100.8233254529,0,18.0,4.0,3,0,,2800000,
11033665,Bangkok,Ratchathewi,Makkasan,1088 Phetchaburi Road,Condo,352.0,1.0,1.0,35,31.0,,13.749185,100.543761,3,,17.0,20,2015,March,6490000,185428.57142857142
6477922,Bangkok,Huai Khwang,Huai Khwang,"195 Rama 9 Road, Soi 5",Condo,1911.0,2.0,1.0,55,15.0,,13.7561782114,100.568285373,3,,14.0,20,2022,April,6290000,114363.63636363637
10698402,Samut Prakan,Bang Sao Thong,Sisa Chorakhe Noi,Lad Krabang Road  Soi Lat Krabang 54,Detached House,418.0,3.0,2.0,103,2.0,200.0,13.713864588,100.7852107919,0,7.0,6.0,8,0,,4000000,
10847038,Samut Prakan,Phra Samut Jadee,Ban Khlong Suan,Soi Pracha Samakkee,Detached House,256.0,4.0,4.0,225,2.0,264.0,13.58271,100.506296,0,6.0,2.0,1,2022,,6200000,
